,city,city_ascii,lat,lng,country,iso2,iso3,admin_name,capital,population,id,area
0,Tokyo,Tokyo,35.6897,139.6922,Japan,JP,JPN,Tōkyō,primary,37977000.0,1392685764,2194.07
1,Jakarta,Jakarta,-6.2146,106.8451,Indonesia,ID,IDN,Jakarta,primary,34540000.0,1360771077,7062.5
2,Delhi,Delhi,28.66,77.23,India,IN,IND,Delhi,admin,29617000.0,1356872604,1484.0
3,Mumbai,Mumbai,18.9667,72.8333,India,IN,IND,Mahārāshtra,admin,23355000.0,1356226629,4355.0
4,Manila,Manila,14.5958,120.9772,Philippines,PH,PHL,Manila,primary,23088000.0,1608618140,1474.82
5,Shanghai,Shanghai,31.1667,121.4667,China,CN,CHN,Shanghai,admin,22120000.0,1156073548,6341.0
6,São Paulo,Sao Paulo,-23.5504,-46.6339,Brazil,BR,BRA,São Paulo,admin,22046000.0,1076532519,53369.61
7,Seoul,Seoul,37.5833,127.0,"Korea, South",KR,KOR,Seoul,primary,21794000.0,1410836482,605.21
8,Mexico City,Mexico City,19.4333,-99.1333,Mexico,MX,MEX,Ciudad de México,primary,20996000.0,1484247881,1485.0
9,Guangzhou,Guangzhou,23.1288,113.259,China,CN,CHN,Guangdong,admin,20902000.0,1156237133,7434.4
10,Beijing,Beijing,39.905,116.3914,China,CN,CHN,Beijing,primary,19433000.0,1156228865,16410.5
11,Cairo,Cairo,30.0561,31.2394,Egypt,EG,EGY,Al Qāhirah,primary,19372000.0,1818253931,3085.12
12,New York,New York,40.6943,-73.9249,United States,US,USA,New York,,18713220.0,1840034016,
13,Kolkāta,Kolkata,22.5411,88.3378,India,IN,IND,West Bengal,admin,17560000.0,1356060520,
14,Moscow,Moscow,55.7558,37.6178,Russia,RU,RUS,Moskva,primary,17125000.0,1643318494,2511.0
15,Bangkok,Bangkok,13.75,100.5167,Thailand,TH,THA,Krung Thep Maha Nakhon,primary,17066000.0,1764068610,7761.6
16,Buenos Aires,Buenos Aires,-34.5997,-58.3819,Argentina,AR,ARG,"Buenos Aires, Ciudad Autónoma de",primary,16157000.0,1032717330,4758.0
17,Shenzhen,Shenzhen,22.535,114.054,China,CN,CHN,Guangdong,minor,15929000.0,1156158707,2050.0
18,Dhaka,Dhaka,23.7161,90.3961,Bangladesh,BD,BGD,Dhaka,primary,15443000.0,1050529279,2161.17
19,Lagos,Lagos,6.45,3.4,Nigeria,NG,NGA,Lagos,minor,15279000.0,1566593751,2706.7
20,Istanbul,Istanbul,41.01,28.9603,Turkey,TR,TUR,İstanbul,admin,15154000.0,1792756324,5343.22
21,Ōsaka,Osaka,34.6936,135.5019,Japan,JP,JPN,Ōsaka,admin,14977000.0,1392419823,223.0
22,Karachi,Karachi,24.86,67.01,Pakistan,PK,PAK,Sindh,admin,14835000.0,1586129469,3780.0
23,Bangalore,Bangalore,12.9699,77.598,India,IN,IND,Karnātaka,admin,13707000.0,1356410365,8005.0
24,Tehran,Tehran,35.7,51.4167,Iran,IR,IRN,Tehrān,primary,13633000.0,1364305026,2235.0
25,Kinshasa,Kinshasa,-4.3317,15.3139,Congo (Kinshasa),CD,COD,Kinshasa,primary,13528000.0,1180000363,9965.0
26,Ho Chi Minh City,Ho Chi Minh City,10.8167,106.6333,Vietnam,VN,VNM,Hồ Chí Minh,admin,13312000.0,1704774326,10619.4
27,Los Angeles,Los Angeles,34.1139,-118.4068,United States,US,USA,California,,12750807.0,1840020491,4850.0
28,Rio de Janeiro,Rio de Janeiro,-22.9083,-43.1964,Brazil,BR,BRA,Rio de Janeiro,admin,12272000.0,1076887657,4539.8
29,Nanyang,Nanyang,32.9987,112.5292,China,CN,CHN,Henan,,12010000.0,1156192287,
30,Chennai,Chennai,13.0825,80.275,India,IN,IND,Tamil Nādu,admin,11324000.0,1356374944,1189.0
31,Chengdu,Chengdu,30.6636,104.0667,China,CN,CHN,Sichuan,admin,11309000.0,1156421555,14378.18
32,Lahore,Lahore,31.5497,74.3436,Pakistan,PK,PAK,Punjab,admin,11021000.0,1586801463,1772.0
33,Paris,Paris,48.8566,2.3522,France,FR,FRA,Île-de-France,primary,11020000.0,1250015082,105.4
34,London,London,51.5072,-0.1275,United Kingdom,GB,GBR,"London, City of",primary,10979000.0,1826645935,3236.0
35,Linyi,Linyi,35.0606,118.3425,China,CN,CHN,Shandong,,10820000.0,1156086320,17191.21
36,Tianjin,Tianjin,39.1467,117.2056,China,CN,CHN,Tianjin,admin,10800000.0,1156174046,11946.0
37,Shijiazhuang,Shijiazhuang,38.0422,114.5086,China,CN,CHN,Hebei,admin,10784600.0,1156217541,15848.0
38,Baoding,Baoding,38.8671,115.4845,China,CN,CHN,Hebei,,10700000.0,1156256829,22190.0
39,Zhoukou,Zhoukou,33.625,114.6418,China,CN,CHN,Henan,minor,9901000.0,1156272098,11959.0
40,Lima,Lima,-12.05,-77.0333,Peru,PE,PER,Lima,primary,9848000.0,1604728603,2819.3
41,Hyderābād,Hyderabad,17.3667,78.4667,India,IN,IND,Telangana,admin,9746000.0,1356871768,7257.0
42,Bogotá,Bogota,4.6126,-74.0705,Colombia,CO,COL,Bogotá,primary,9464000.0,1170483426,1587.0
43,Weifang,Weifang,36.7167,119.1,China,CN,CHN,Shandong,,9373000.0,1156912965,16143.14
44,Nagoya,Nagoya,35.1167,136.9333,Japan,JP,JPN,Aichi,admin,9113000.0,1392407472,326.45
45,Wuhan,Wuhan,30.5872,114.2881,China,CN,CHN,Hubei,admin,8962000.0,1156117184,8494.41
46,Heze,Heze,35.2333,115.4333,China,CN,CHN,Shandong,minor,8750000.0,1156225008,12239.0
47,Ganzhou,Ganzhou,25.8292,114.9336,China,CN,CHN,Jiangxi,minor,8677600.0,1156832475,39379.64
48,Tongshan,Tongshan,34.261,117.1859,China,CN,CHN,Jiangsu,minor,8669000.0,1156241678,
49,Chicago,Chicago,41.8373,-87.6862,United States,US,USA,Illinois,,8604203.0,1840000494,10874.0
50,Handan,Handan,36.6116,114.4894,China,CN,CHN,Hebei,,8499000.0,1156957080,12068.0
51,Luanda,Luanda,-8.8383,13.2344,Angola,AO,AGO,Luanda,primary,8417000.0,1024949724,1876.0
52,Fuyang,Fuyang,32.8986,115.8045,China,CN,CHN,Anhui,,8360000.0,1156248008,9775.0
53,Kuala Lumpur,Kuala Lumpur,3.1478,101.6953,Malaysia,MY,MYS,Kuala Lumpur,primary,8285000.0,1458988644,2243.27
54,Jining,Jining,35.4,116.5667,China,CN,CHN,Shandong,,8023000.0,1156504601,11186.97
55,Dongguan,Dongguan,23.0475,113.7493,China,CN,CHN,Guangdong,minor,7981000.0,1156478242,17572.9
56,Hanoi,Hanoi,21.0245,105.8412,Vietnam,VN,VNM,Hà Nội,primary,7785000.0,1704413791,24314.7
57,Pune,Pune,18.5196,73.8553,India,IN,IND,Mahārāshtra,,7764000.0,1356081074,7256.4
58,Chongqing,Chongqing,29.55,106.5069,China,CN,CHN,Chongqing,admin,7739000.0,1156936556,82403.0
59,Changchun,Changchun,43.9,125.2,China,CN,CHN,Jilin,admin,7674439.0,1156078103,24734.0
60,Zhumadian,Zhumadian,32.9773,114.0253,China,CN,CHN,Henan,,7640000.0,1156184822,14974.0
61,Ningbo,Ningbo,29.875,121.5492,China,CN,CHN,Zhejiang,minor,7639000.0,1156170787,9816.23
62,Onitsha,Onitsha,6.1667,6.7833,Nigeria,NG,NGA,Anambra,minor,7635000.0,1566593483,1965.0
63,Nanjing,Nanjing,32.05,118.7667,China,CN,CHN,Jiangsu,admin,7496000.0,1156644065,6587.0
64,Hefei,Hefei,31.8639,117.2808,China,CN,CHN,Anhui,admin,7457027.0,1156332710,11434.25
65,Ahmadābād,Ahmadabad,23.03,72.58,India,IN,IND,Gujarāt,minor,7410000.0,1356304381,1866.0
66,Hong Kong,Hong Kong,22.305,114.185,Hong Kong,HK,HKG,,,7347000.0,1344982653,2755.0
67,Khartoum,Khartoum,15.6031,32.5265,Sudan,SD,SDN,Khartoum,primary,7282000.0,1729268475,1010.0
68,Nantong,Nantong,31.9829,120.8873,China,CN,CHN,Jiangsu,minor,7282835.0,1156045365,8544.1
69,Yancheng,Yancheng,33.3936,120.1339,China,CN,CHN,Jiangsu,minor,7260240.0,1156995410,16920.83
70,Foshan,Foshan,23.0292,113.1056,China,CN,CHN,Guangdong,minor,7194311.0,1156738403,17573.0
71,Nanning,Nanning,22.8192,108.315,China,CN,CHN,Guangxi,admin,7153300.0,1156605439,22189.0
72,Hengyang,Hengyang,26.8968,112.5857,China,CN,CHN,Hunan,,7148344.0,1156696884,15279.0
73,Xi’an,Xi'an,34.2667,108.9,China,CN,CHN,Shaanxi,admin,7135000.0,1156244079,9983.0
74,Shenyang,Shenyang,41.8039,123.4258,China,CN,CHN,Liaoning,admin,7105000.0,1156309382,12942.0
75,Tangshan,Tangshan,39.6292,118.1742,China,CN,CHN,Hebei,,7100000.0,1156904299,13472.0
76,Shaoyang,Shaoyang,27.2418,111.4725,China,CN,CHN,Hunan,,7071000.0,1156310366,20829.63
77,Changsha,Changsha,28.1987,112.9709,China,CN,CHN,Hunan,admin,7044118.0,1156961497,11819.0
78,Santiago,Santiago,-33.45,-70.6667,Chile,CL,CHL,Región Metropolitana,primary,7007000.0,1152554349,641.0
79,Zhengzhou,Zhengzhou,34.7492,113.6605,China,CN,CHN,Henan,admin,7005000.0,1156183137,7507.0
80,Zhanjiang,Zhanjiang,21.1967,110.4031,China,CN,CHN,Guangdong,minor,6900000.0,1156502170,12490.0
81,Riyadh,Riyadh,24.65,46.71,Saudi Arabia,SA,SAU,Ar Riyāḑ,primary,6881000.0,1682999334,1973.0
82,Cangzhou,Cangzhou,38.3037,116.8452,China,CN,CHN,Hebei,,6800000.0,1156698069,14383.46
83,Dar es Salaam,Dar es Salaam,-6.8,39.2833,Tanzania,TZ,TZA,Dar es Salaam,primary,6698000.0,1834843853,1493.0
84,Maoming,Maoming,21.6618,110.9178,China,CN,CHN,Guangdong,minor,6706000.0,1156568722,11424.8
85,Huanggang,Huanggang,30.45,114.875,China,CN,CHN,Hubei,minor,6667000.0,1156200037,17446.63
86,Xinyang,Xinyang,32.1264,114.0672,China,CN,CHN,Henan,,6634000.0,1156273453,18908.27
87,Shangrao,Shangrao,28.4419,117.9633,China,CN,CHN,Jiangxi,minor,6579714.0,1156405492,22791.0
88,Luoyang,Luoyang,34.6587,112.4245,China,CN,CHN,Henan,,6549941.0,1156069315,15229.15
89,Bijie,Bijie,27.3019,105.2863,China,CN,CHN,Guizhou,,6537498.0,1156018927,26853.0
90,Yantai,Yantai,37.3997,121.2664,China,CN,CHN,Shandong,,6516900.0,1156932948,13739.9
91,Quanzhou,Quanzhou,24.9139,118.5858,China,CN,CHN,Fujian,minor,6480000.0,1156829655,11218.91
92,Hangzhou,Hangzhou,30.25,120.1675,China,CN,CHN,Zhejiang,admin,6446000.0,1156275243,34585.0
93,Miami,Miami,25.7839,-80.2102,United States,US,USA,Florida,,6445545.0,1840015149,6137.0
94,Kunming,Kunming,25.0433,102.7061,China,CN,CHN,Yunnan,admin,6250000.0,1156477539,21015.0
95,Nanchong,Nanchong,30.7991,106.0784,China,CN,CHN,Sichuan,minor,6183000.0,1156762337,12479.96
96,Zunyi,Zunyi,27.705,106.9336,China,CN,CHN,Guizhou,,6127009.0,1156539782,30763.0
97,Lu’an,Lu'an,31.7542,116.5078,China,CN,CHN,Anhui,minor,6090000.0,1156499624,18393.41
98,Yichun,Yichun,27.8041,114.383,China,CN,CHN,Jiangxi,minor,6048700.0,1156229590,
99,Taizhou,Taizhou,28.6583,121.4221,China,CN,CHN,Zhejiang,minor,5968838.0,1156322307,
100,Liaocheng,Liaocheng,36.45,115.9833,China,CN,CHN,Shandong,minor,5955300.0,1156006600,8715.0
101,Qujing,Qujing,25.5102,103.8029,China,CN,CHN,Yunnan,,5855055.0,1156747998,29855.0
102,Xiangyang,Xiangyang,32.0654,112.1531,China,CN,CHN,Hubei,minor,5844000.0,1156107325,19724.41
103,Sūrat,Surat,21.17,72.83,India,IN,IND,Gujarāt,,5807000.0,1356758738,472.0
104,Baghdad,Baghdad,33.35,44.4167,Iraq,IQ,IRQ,Baghdād,primary,5796000.0,1368596238,673.0
105,Qingdao,Qingdao,36.1167,120.4,China,CN,CHN,Shandong,minor,5775000.0,1156112588,11067.0
106,Singapore,Singapore,1.3,103.8,Singapore,SG,SGP,Central Singapore,primary,5745000.0,1702341327,725.7
107,Dallas,Dallas,32.7936,-96.7662,United States,US,USA,Texas,,5743938.0,1840019440,1407.2
108,Changde,Changde,29.0397,111.6839,China,CN,CHN,Hunan,minor,5717200.0,1156449091,18177.0
109,Dazhou,Dazhou,31.2152,107.4947,China,CN,CHN,Sichuan,minor,5693000.0,1156834076,16591.0
110,Suzhou,Suzhou,33.6333,116.9683,China,CN,CHN,Anhui,,5690000.0,1156871297,8488.42
111,Philadelphia,Philadelphia,40.0077,-75.1339,United States,US,USA,Pennsylvania,,5649300.0,1840000673,142.7
112,Jieyang,Jieyang,23.5533,116.3649,China,CN,CHN,Guangdong,minor,5634000.0,1156260378,5240.5
113,Nairobi,Nairobi,-1.2864,36.8172,Kenya,KE,KEN,Nairobi City,primary,5545000.0,1404000661,696.0
114,Nangandao,Nangandao,35.2992,113.8851,China,CN,CHN,Henan,minor,5516000.0,1156127660,
115,Ankara,Ankara,39.93,32.85,Turkey,TR,TUR,Ankara,primary,5503985.0,1792572891,24521.0
116,Tai’an,Tai'an,36.2001,117.0809,China,CN,CHN,Shandong,,5499000.0,1156095188,
117,Yulin,Yulin,22.6293,110.1507,China,CN,CHN,Guangxi,,5487368.0,1156901312,
118,Dezhou,Dezhou,37.4513,116.3105,China,CN,CHN,Shandong,minor,5470000.0,1156524080,10356.0
119,Houston,Houston,29.7863,-95.3889,United States,US,USA,Texas,,5464251.0,1840020925,1062.0
120,Atlanta,Atlanta,33.7627,-84.4224,United States,US,USA,Georgia,admin,5449398.0,1840013660,8376.0
121,Rangoon,Rangoon,16.8,96.15,Burma,MM,MMR,Yangon,primary,5430000.0,1104616656,10170.0
122,Toronto,Toronto,43.7417,-79.3733,Canada,CA,CAN,Ontario,,5429524.0,1124279679,5905.71
123,Suihua,Suihua,46.6384,126.9808,China,CN,CHN,Heilongjiang,minor,5420000.0,1156235493,34964.17
124,Washington,Washington,38.9047,-77.0163,United States,US,USA,District of Columbia,primary,5379184.0,1840006060,
125,Qiqihar,Qiqihar,47.3398,123.9512,China,CN,CHN,Heilongjiang,minor,5367003.0,1156775905,42205.82
126,Jinhua,Jinhua,29.1046,119.6494,China,CN,CHN,Zhejiang,minor,5361572.0,1156547188,10926.16
127,Saint Petersburg,Saint Petersburg,59.95,30.3167,Russia,RU,RUS,Sankt-Peterburg,admin,5351935.0,1643616350,1439.0
128,Shantou,Shantou,23.3735,116.6941,China,CN,CHN,Guangdong,minor,5319028.0,1156457499,9297.1
129,Sydney,Sydney,-33.865,151.2094,Australia,AU,AUS,New South Wales,admin,5312163.0,1036074917,
130,Weinan,Weinan,34.4996,109.4684,China,CN,CHN,Shaanxi,minor,5300000.0,1156903687,13134.0
131,Suqian,Suqian,33.9331,118.2831,China,CN,CHN,Jiangsu,,5290000.0,1156212349,8555.0
132,Guadalajara,Guadalajara,20.6767,-103.3475,Mexico,MX,MEX,Jalisco,admin,5253000.0,1484950208,2734.0
133,Suzhou,Suzhou,31.304,120.6164,China,CN,CHN,Jiangsu,minor,5250000.0,1156029196,8488.42
134,Fuzhou,Fuzhou,26.0769,119.2917,China,CN,CHN,Fujian,admin,5245000.0,1156188037,12177.0
135,Zhaotong,Zhaotong,27.3328,103.7144,China,CN,CHN,Yunnan,,5213521.0,1156924687,23192.0
136,Pudong,Pudong,31.2231,121.5397,China,CN,CHN,Shanghai,minor,5187200.0,1156644508,1210.4
137,Yongzhou,Yongzhou,26.4515,111.5953,China,CN,CHN,Hunan,,5180235.0,1156694479,22441.43
138,Belo Horizonte,Belo Horizonte,-19.8917,-43.9478,Brazil,BR,BRA,Minas Gerais,admin,5159000.0,1076967355,9459.1
139,Zhangzhou,Zhangzhou,24.5093,117.6612,China,CN,CHN,Fujian,minor,5140000.0,1156241637,12888.0
140,Bozhou,Bozhou,33.8626,115.7742,China,CN,CHN,Anhui,,5100000.0,1156356860,8522.58
141,Melbourne,Melbourne,-37.8136,144.9631,Australia,AU,AUS,Victoria,admin,5078193.0,1036533631,
142,Nanchang,Nanchang,28.6842,115.8872,China,CN,CHN,Jiangxi,admin,5042565.0,1156198892,7194.0
143,Xianyang,Xianyang,34.35,108.7167,China,CN,CHN,Shaanxi,minor,5040000.0,1156120117,10213.0
144,Taizhou,Taizhou,32.4831,119.9,China,CN,CHN,Jiangsu,minor,5031000.0,1156119229,
145,Surabaya,Surabaya,-7.2458,112.7378,Indonesia,ID,IDN,Jawa Timur,admin,4975000.0,1360484663,5925.0
146,Abidjan,Abidjan,5.3364,-4.0267,Côte D’Ivoire,CI,CIV,Abidjan,primary,4980000.0,1384207980,2119.0
147,Ji’an,Ji'an,27.1172,114.9793,China,CN,CHN,Jiangxi,minor,4956600.0,1156278215,
148,Mianyang,Mianyang,31.4669,104.7385,China,CN,CHN,Sichuan,minor,4945000.0,1156417758,20267.46
149,Shaoxing,Shaoxing,30.0,120.5833,China,CN,CHN,Zhejiang,minor,4912239.0,1156893449,8279.1
150,Alexandria,Alexandria,31.2,29.9167,Egypt,EG,EGY,Al Iskandarīyah,admin,4870000.0,1818695837,2679.0
151,Yuncheng,Yuncheng,35.0304,110.998,China,CN,CHN,Shanxi,,4860000.0,1156705644,14183.0
152,Pingdingshan,Pingdingshan,33.735,113.2999,China,CN,CHN,Henan,,4838000.0,1156735124,7848.0
153,Huai’an,Huai'an,33.5,119.1331,China,CN,CHN,Jiangsu,,4799889.0,1156634228,
154,Xinpu,Xinpu,34.5906,119.1801,China,CN,CHN,Jiangsu,minor,4790000.0,1156035381,
155,Guilin,Guilin,25.2667,110.2833,China,CN,CHN,Guangxi,minor,4747963.0,1156235364,27809.0
156,Huaihua,Huaihua,27.5494,109.9592,China,CN,CHN,Hunan,,4741948.0,1156353465,27600.0
157,Jiujiang,Jiujiang,29.7048,116.0021,China,CN,CHN,Jiangxi,minor,4728778.0,1156206041,18823.0
158,Anqing,Anqing,30.5,117.0333,China,CN,CHN,Anhui,minor,4723000.0,1156238875,13590.0
159,Boston,Boston,42.3188,-71.0846,United States,US,USA,Massachusetts,admin,4688346.0,1840000455,10600.0
160,Huanglongsi,Huanglongsi,34.7936,114.3403,China,CN,CHN,Henan,,4676159.0,1156198356,
161,Xiaoganzhan,Xiaoganzhan,30.9273,113.911,China,CN,CHN,Hubei,,4665000.0,1156002290,
162,Changzhou,Changzhou,31.8122,119.9692,China,CN,CHN,Jiangsu,minor,4592431.0,1156185511,4384.58
163,Barcelona,Barcelona,41.3825,2.1769,Spain,ES,ESP,Catalonia,admin,4588000.0,1724594040,101.4
164,Chenzhou,Chenzhou,25.7989,113.0267,China,CN,CHN,Hunan,minor,4581778.0,1156291915,19317.0
165,Wuxi,Wuxi,31.5667,120.2833,China,CN,CHN,Jiangsu,minor,4580000.0,1156019650,9.0
166,Zibo,Zibo,36.7831,118.0497,China,CN,CHN,Shandong,,4530597.0,1156381094,5965.0
167,Jiaxing,Jiaxing,30.7522,120.75,China,CN,CHN,Zhejiang,minor,4501657.0,1156491661,4008.76
168,Dalian,Dalian,38.9131,121.61,China,CN,CHN,Liaoning,,4480000.0,1156175472,13237.0
169,Harbin,Harbin,45.75,126.6333,China,CN,CHN,Heilongjiang,admin,4458000.0,1156241528,53068.0
170,Yangzhou,Yangzhou,32.3912,119.4363,China,CN,CHN,Jiangsu,,4459000.0,1156818601,6678.0
171,Yibin,Yibin,28.7596,104.64,China,CN,CHN,Sichuan,minor,4456000.0,1156107603,13293.89
172,Jiangmen,Jiangmen,22.5833,113.0833,China,CN,CHN,Guangdong,minor,4448871.0,1156105613,17573.0
173,Johannesburg,Johannesburg,-26.2044,28.0416,South Africa,ZA,ZAF,Gauteng,admin,4434827.0,1710550792,3357.0
174,Meizhou,Meizhou,24.2998,116.1191,China,CN,CHN,Guangdong,minor,4378800.0,1156361028,15864.51
175,Chifeng,Chifeng,42.2663,118.9223,China,CN,CHN,Inner Mongolia,minor,4376600.0,1156277458,90275.0
176,Casablanca,Casablanca,33.5992,-7.62,Morocco,MA,MAR,Casablanca-Settat,admin,4370000.0,1504175315,20166.0
177,Guiyang,Guiyang,26.5794,106.7078,China,CN,CHN,Guizhou,admin,4365000.0,1156932620,8034.0
178,Langfang,Langfang,39.5196,116.7006,China,CN,CHN,Hebei,,4358839.0,1156109017,6417.28
179,Zhangjiakou,Zhangjiakou,40.8108,114.8811,China,CN,CHN,Hebei,,4345491.0,1156800221,36861.56
180,İzmir,Izmir,38.4127,27.1384,Turkey,TR,TUR,İzmir,admin,4320519.0,1792725579,11891.0
181,Linfen,Linfen,36.0812,111.5087,China,CN,CHN,Shanxi,,4316610.0,1156416074,20275.0
182,Wenzhou,Wenzhou,27.9991,120.6561,China,CN,CHN,Zhejiang,,4310000.0,1156188829,12255.74
183,Monterrey,Monterrey,25.6667,-100.3,Mexico,MX,MEX,Nuevo León,admin,4295000.0,1484559591,7657.5
184,Luzhou,Luzhou,28.8918,105.4409,China,CN,CHN,Sichuan,minor,4291000.0,1156582079,12233.58
185,Jiangguanchi,Jiangguanchi,34.0244,113.8201,China,CN,CHN,Henan,minor,4289000.0,1156235735,
186,Neijiang,Neijiang,29.5872,105.0635,China,CN,CHN,Sichuan,minor,4238000.0,1156516335,5385.33
187,Phoenix,Phoenix,33.5722,-112.0891,United States,US,USA,Arizona,admin,4219697.0,1840020568,
188,Yanjiang,Yanjiang,30.1256,104.6397,China,CN,CHN,Sichuan,minor,4217000.0,1156217114,1633.0
189,Yiyang,Yiyang,28.5833,112.3333,China,CN,CHN,Hunan,,4174000.0,1156218615,12144.0
190,Zhaoqing,Zhaoqing,23.047,112.465,China,CN,CHN,Guangdong,minor,4151700.0,1156170144,14891.23
191,Hengshui,Hengshui,37.7348,115.686,China,CN,CHN,Hebei,,4150000.0,1156803028,8836.95
192,Guigang,Guigang,23.0961,109.6092,China,CN,CHN,Guangxi,,4118808.0,1156895251,10595.0
193,Xiaoxita,Xiaoxita,30.7083,111.2803,China,CN,CHN,Hubei,minor,4115000.0,1156764447,
194,Xiamen,Xiamen,24.4797,118.0819,China,CN,CHN,Fujian,minor,4110000.0,1156212809,3217.98
195,Chuzhou,Chuzhou,32.3062,118.3115,China,CN,CHN,Anhui,,4110000.0,1156036420,13523.21
196,Fuzhou,Fuzhou,27.9814,116.3577,China,CN,CHN,Jiangxi,,4047200.0,1156915325,12177.0
197,Amman,Amman,31.95,35.9333,Jordan,JO,JOR,Al ‘Āşimah,primary,4007526.0,1400522593,1680.0
198,Jeddah,Jeddah,21.5428,39.1728,Saudi Arabia,SA,SAU,Makkah al Mukarramah,,3976000.0,1682926944,1686.0
199,Sialkot City,Sialkot City,32.5,74.5333,Pakistan,PK,PAK,Punjab,minor,3893672.0,1586141444,102.0
200,Huizhou,Huizhou,23.1115,114.4152,China,CN,CHN,Guangdong,minor,3875000.0,1156203268,10922.0
201,Qingyuan,Qingyuan,23.6842,113.0507,China,CN,CHN,Guangdong,minor,3874000.0,1156135890,19152.9
202,Zhuzhou,Zhuzhou,27.8407,113.1469,China,CN,CHN,Hunan,minor,3855609.0,1156041962,11262.0
203,Wuhu,Wuhu,31.334,118.3622,China,CN,CHN,Anhui,minor,3842100.0,1156315512,6048.5
204,Hechi,Hechi,23.0965,109.6091,China,CN,CHN,Guangxi,,3830000.0,1156868701,33500.0
205,Seattle,Seattle,47.6211,-122.3244,United States,US,USA,Washington,,3789215.0,1840021117,8186.0
206,Loudi,Loudi,27.7378,111.9974,China,CN,CHN,Hunan,,3785627.0,1156010654,8117.0
207,Binzhou,Binzhou,37.3806,118.0125,China,CN,CHN,Shandong,,3779200.0,1156564962,9444.65
208,Liuzhou,Liuzhou,24.3181,109.4069,China,CN,CHN,Guangxi,minor,3758704.0,1156360785,18677.0
209,Yokohama,Yokohama,35.4333,139.6333,Japan,JP,JPN,Kanagawa,admin,3748781.0,1392118339,437.38
210,Baojishi,Baojishi,34.3609,107.1751,China,CN,CHN,Shaanxi,,3738700.0,1156101096,
211,Guang’an,Guang'an,30.4673,106.6336,China,CN,CHN,Sichuan,minor,3723000.0,1156377302,
212,Hanzhong,Hanzhong,33.0794,107.026,China,CN,CHN,Shaanxi,,3700000.0,1156382678,27246.0
213,Kabul,Kabul,34.5328,69.1658,Afghanistan,AF,AFG,Kābul,primary,3678034.0,1004993580,275.0
214,Zaozhuang,Zaozhuang,34.8667,117.55,China,CN,CHN,Shandong,,3650000.0,1156796454,4563.22
215,Berlin,Berlin,52.5167,13.3833,Germany,DE,DEU,Berlin,primary,3644826.0,1276451290,891.1
216,Anshan,Anshan,41.1066,122.9895,China,CN,CHN,Liaoning,,3645884.0,1156901825,9252.0
217,Deyang,Deyang,31.1289,104.395,China,CN,CHN,Sichuan,minor,3636000.0,1156127147,5818.0
218,Lanzhou,Lanzhou,36.0617,103.8318,China,CN,CHN,Gansu,admin,3616163.0,1156280566,13300.0
219,Chengde,Chengde,40.9739,117.9322,China,CN,CHN,Hebei,,3610000.0,1156197800,39519.0
220,San Francisco,San Francisco,37.7562,-122.443,United States,US,USA,California,,3592294.0,1840021543,3524.4
221,Puyang,Puyang,35.7639,115.03,China,CN,CHN,Henan,minor,3580000.0,1156431924,4188.0
222,Suining,Suining,30.5098,105.5737,China,CN,CHN,Sichuan,minor,3556000.0,1156655650,5326.0
223,Jiaozuo,Jiaozuo,35.229,113.2304,China,CN,CHN,Henan,,3540101.0,1156157854,4071.0
224,Bengbu,Bengbu,32.9354,117.3531,China,CN,CHN,Anhui,,3525000.0,1156440668,5952.14
225,Montréal,Montreal,45.5089,-73.5617,Canada,CA,CAN,Quebec,,3519595.0,1124586170,4604.26
226,Detroit,Detroit,42.3834,-83.1024,United States,US,USA,Michigan,,3506126.0,1840003971,3913.0
227,Baicheng,Baicheng,23.901,106.6194,China,CN,CHN,Guangxi,minor,3466758.0,1156981113,25683.0
228,Busan,Busan,35.1,129.0403,"Korea, South",KR,KOR,Busan,admin,3440484.0,1410601465,770.04
229,Algiers,Algiers,36.7764,3.0586,Algeria,DZ,DZA,Alger,primary,3415811.0,1012973369,1190.0
230,Qincheng,Qincheng,34.5809,105.7311,China,CN,CHN,Gansu,minor,3400000.0,1156104017,
231,Taiyuan,Taiyuan,37.8733,112.5425,China,CN,CHN,Shanxi,admin,3398000.0,1156632014,6959.0
232,Lucknow,Lucknow,26.847,80.947,India,IN,IND,Uttar Pradesh,admin,3382000.0,1356891790,631.0
233,Chaoyang,Chaoyang,41.5757,120.4486,China,CN,CHN,Liaoning,,3370000.0,1156706927,
234,Hechi,Hechi,24.6928,108.085,China,CN,CHN,Guangxi,,3369251.0,1156167204,33500.0
235,Leshan,Leshan,29.5854,103.7575,China,CN,CHN,Sichuan,,3364000.0,1156203130,12827.49
236,Yulinshi,Yulinshi,38.2655,109.7388,China,CN,CHN,Shaanxi,,3328000.0,1156280672,
237,Siping,Siping,43.1715,124.3644,China,CN,CHN,Jilin,,3300000.0,1156063295,
238,Madrid,Madrid,40.4189,-3.6919,Spain,ES,ESP,Madrid,primary,3266126.0,1724616994,604.31
239,Jinan,Jinan,36.6667,116.9833,China,CN,CHN,Shandong,admin,3250000.0,1156972469,53000.0
240,Shiyan,Shiyan,32.6351,110.7755,China,CN,CHN,Hubei,minor,3228000.0,1156383921,1022.0
241,Changzhi,Changzhi,36.1953,113.097,China,CN,CHN,Shanxi,minor,3230000.0,1156057944,13864.0
242,San Diego,San Diego,32.8312,-117.1225,United States,US,USA,California,,3220118.0,1840021990,372.42
243,Faisalabad,Faisalabad,31.418,73.079,Pakistan,PK,PAK,Punjab,minor,3203846.0,1586323916,5860.0
244,Santa Cruz,Santa Cruz,-17.7892,-63.1975,Bolivia,BO,BOL,Santa Cruz,admin,3151676.0,1068129363,
245,Bazhou,Bazhou,31.8576,106.7559,China,CN,CHN,Sichuan,minor,3134000.0,1156271365,
246,Zhongshan,Zhongshan,22.5333,113.35,China,CN,CHN,Guangdong,minor,3121275.0,1156579621,1783.67
247,Zhenjiang,Zhenjiang,32.2109,119.4551,China,CN,CHN,Jiangsu,minor,3113384.0,1156934125,3799.0
248,Ürümqi,Urumqi,43.825,87.6,China,CN,CHN,Xinjiang,admin,3112559.0,1156051276,14577.0
249,Tongliao,Tongliao,43.6172,122.264,China,CN,CHN,Inner Mongolia,minor,3094600.0,1156358686,3212.0
250,Heyuan,Heyuan,23.7503,114.6923,China,CN,CHN,Guangdong,minor,3093900.0,1156665165,15653.63
251,Tongren,Tongren,27.7233,109.1885,China,CN,CHN,Guizhou,,3093204.0,1156803442,
252,Qinzhou,Qinzhou,21.95,108.6167,China,CN,CHN,Guangxi,minor,3079721.0,1156106602,5250.0
253,Jaipur,Jaipur,26.9167,75.8667,India,IN,IND,Rājasthān,admin,3073350.0,1356293537,467.0
254,Xinzhou,Xinzhou,38.4178,112.7233,China,CN,CHN,Shanxi,minor,3067501.0,1156617534,25180.0
255,Addis Ababa,Addis Ababa,9.0272,38.7369,Ethiopia,ET,ETH,Ādīs Ābeba,primary,3041002.0,1231824991,527.0
256,Giza,Giza,29.987,31.2118,Egypt,EG,EGY,Al Jīzah,admin,3021542.0,1818925479,1579.75
257,Meishan,Meishan,30.0575,103.8381,China,CN,CHN,Sichuan,,3020000.0,1156185501,7173.82
258,Brasília,Brasilia,-15.7744,-48.0773,Brazil,BR,BRA,Distrito Federal,primary,3015268.0,1076144436,5802.0
259,Mashhad,Mashhad,36.3069,59.6042,Iran,IR,IRN,Khorāsān-e Raẕavī,admin,3001184.0,1364123206,351.0
260,Jinzhou,Jinzhou,41.1144,121.1292,China,CN,CHN,Liaoning,,3000000.0,1156157151,10111.0
261,Tieling,Tieling,42.2841,123.8365,China,CN,CHN,Liaoning,,3000000.0,1156089994,12966.0
262,Shaoguan,Shaoguan,24.8011,113.5927,China,CN,CHN,Guangdong,minor,2997600.0,1156617066,18645.0
263,Shanwei,Shanwei,22.7664,115.3331,China,CN,CHN,Guangdong,minor,2990000.0,1156939010,4861.79
264,Minneapolis,Minneapolis,44.9635,-93.2678,United States,US,USA,Minnesota,,2977172.0,1840007830,57.49
265,Kyiv,Kyiv,50.45,30.5236,Ukraine,UA,UKR,"Kyyiv, Misto",primary,2967000.0,1804382913,839.0
266,Sanaa,Sanaa,15.35,44.2,Yemen,YE,YEM,Amānat al ‘Āşimah,primary,2957000.0,1887750814,126.0
267,Quezon City,Quezon City,14.6333,121.0333,Philippines,PH,PHL,Quezon,admin,2936116.0,1608974097,166.2
268,Dingxi,Dingxi,35.5806,104.6263,China,CN,CHN,Gansu,minor,2930000.0,1156518274,19609.24
269,Salvador,Salvador,-12.9708,-38.5108,Brazil,BR,BRA,Bahia,admin,2921087.0,1076923789,
270,Incheon,Incheon,37.4639,126.6486,"Korea, South",KR,KOR,Incheon,admin,2913024.0,1410160313,1062.63
271,Bursa,Bursa,40.1833,29.0667,Turkey,TR,TUR,Bursa,admin,2901396.0,1792903330,1036.0
272,Ningde,Ningde,26.6667,119.5167,China,CN,CHN,Fujian,minor,2910000.0,1156909802,13452.0
273,Tampa,Tampa,27.9942,-82.4451,United States,US,USA,Florida,,2908063.0,1840015982,2554.0
274,Daqing,Daqing,46.5979,125.008,China,CN,CHN,Heilongjiang,,2904532.0,1156403962,22161.0
275,Birmingham,Birmingham,52.48,-1.9025,United Kingdom,GB,GBR,Birmingham,,2897303.0,1826423213,231.2
276,Putian,Putian,25.4394,119.0103,China,CN,CHN,Fujian,minor,2900000.0,1156811601,4119.0
277,Huzhou,Huzhou,30.8695,120.0958,China,CN,CHN,Zhejiang,minor,2893542.0,1156335543,5818.43
278,Wuzhou,Wuzhou,23.4833,111.3167,China,CN,CHN,Guangxi,minor,2882200.0,1156620133,12588.0
279,Denver,Denver,39.7621,-104.8759,United States,US,USA,Colorado,admin,2876625.0,1840018789,8414.4
280,Rome,Rome,41.8931,12.4828,Italy,IT,ITA,Lazio,primary,2872800.0,1380382862,1285.0
281,La Paz,La Paz,-16.4942,-68.1475,Bolivia,BO,BOL,La Paz,primary,2867504.0,1068000064,3240.0
282,Pyongyang,Pyongyang,39.03,125.73,"Korea, North",KP,PRK,P’yŏngyang,primary,2863000.0,1408738594,2000.0
283,Kano,Kano,12.0,8.5167,Nigeria,NG,NGA,Kano,admin,2828861.0,1566422868,499.0
284,Taichung,Taichung,24.15,120.6667,Taiwan,TW,TWN,Taichung,admin,2803894.0,1158689622,2214.9
285,Omdurman,Omdurman,15.6835,32.4629,Sudan,SD,SDN,Khartoum,,2805396.0,1729912179,614.9
286,Zigong,Zigong,29.3498,104.7645,China,CN,CHN,Sichuan,,2800000.0,1156023354,4372.6
287,Qinhuangdao,Qinhuangdao,39.9398,119.5881,China,CN,CHN,Hebei,,2800000.0,1156091093,7791.57
288,Mudanjiang,Mudanjiang,44.5861,129.5997,China,CN,CHN,Heilongjiang,minor,2790000.0,1156249698,40233.0
289,Huludao,Huludao,40.7094,120.8378,China,CN,CHN,Liaoning,minor,2787000.0,1156580218,10415.0
290,Kaohsiung,Kaohsiung,22.6167,120.3,Taiwan,TW,TWN,Kaohsiung,admin,2773533.0,1158331334,2951.85
291,Xiangtan,Xiangtan,27.8431,112.9228,China,CN,CHN,Hunan,,2748552.0,1156195684,5006.0
292,Guayaquil,Guayaquil,-2.1833,-79.8833,Ecuador,EC,ECU,Guayas,admin,2723665.0,1218802178,2493.86
293,Rizhao,Rizhao,35.4164,119.4331,China,CN,CHN,Shandong,minor,2720000.0,1156032841,5310.0
294,Manchester,Manchester,53.4794,-2.2453,United Kingdom,GB,GBR,Manchester,,2705000.0,1826246335,630.3
295,Cawnpore,Cawnpore,26.4725,80.3311,India,IN,IND,Uttar Pradesh,,2701324.0,1356575238,403.0
296,Baotou,Baotou,40.6562,109.8345,China,CN,CHN,Inner Mongolia,,2700000.0,1156032751,27768.0
297,Taipei,Taipei,25.0478,121.5319,Taiwan,TW,TWN,Taipei,primary,2684567.0,1158881289,1140.0
298,Nanping,Nanping,26.6448,118.1728,China,CN,CHN,Fujian,minor,2690000.0,1156927445,26278.0
299,Longyan,Longyan,25.0881,117.0244,China,CN,CHN,Fujian,minor,2640000.0,1156012979,19069.0
300,Ibadan,Ibadan,7.3964,3.9167,Nigeria,NG,NGA,Oyo,admin,2628000.0,1566366407,6800.0
301,Hohhot,Hohhot,40.8151,111.6629,China,CN,CHN,Inner Mongolia,admin,2635000.0,1156210167,17186.1
302,Chaozhou,Chaozhou,23.67,116.63,China,CN,CHN,Guangdong,minor,2620000.0,1156549118,3110.0
303,Antananarivo,Antananarivo,-18.9386,47.5214,Madagascar,MG,MDG,Antananarivo,primary,2610000.0,1450978461,85.01
304,Longba,Longba,33.535,105.349,China,CN,CHN,Gansu,,2614000.0,1156633259,
305,Weihai,Weihai,37.5,122.1,China,CN,CHN,Shandong,minor,2596753.0,1156473300,5797.0
306,Chattogram,Chattogram,22.335,91.8325,Bangladesh,BD,BGD,Chittagong,admin,2581643.0,1050830722,5282.92
307,Santo Domingo,Santo Domingo,18.4764,-69.8933,Dominican Republic,DO,DOM,Ozama,primary,2581827.0,1214636202,2696.69
308,Xuanzhou,Xuanzhou,30.9475,118.7518,China,CN,CHN,Anhui,,2580000.0,1156424311,
309,Sanming,Sanming,26.2658,117.6302,China,CN,CHN,Fujian,minor,2580000.0,1156294429,22929.0
310,Brooklyn,Brooklyn,40.6501,-73.9496,United States,US,USA,New York,,2559903.0,1840034030,97.0
311,Medellín,Medellin,6.2447,-75.5748,Colombia,CO,COL,Antioquia,admin,2529403.0,1170680389,1152.0
312,Brisbane,Brisbane,-27.4678,153.0281,Australia,AU,AUS,Queensland,admin,2514184.0,1036192929,
313,Baoshan,Baoshan,25.1211,99.169,China,CN,CHN,Yunnan,,2506491.0,1156546994,
314,Dubai,Dubai,25.2697,55.3094,United Arab Emirates,AE,ARE,Dubayy,admin,2502715.0,1784736618,4114.0
315,Luohe,Luohe,33.583,114.0109,China,CN,CHN,Henan,minor,2500000.0,1156330876,2617.0
316,Qinbaling,Qinbaling,35.7278,107.64,China,CN,CHN,Gansu,,2500000.0,1156032582,
317,Mirzāpur,Mirzapur,25.15,82.58,India,IN,IND,Uttar Pradesh,,2496970.0,1356427908,
318,Guangyuan,Guangyuan,32.4353,105.8398,China,CN,CHN,Sichuan,,2484122.0,1156084562,16313.78
319,Cali,Cali,3.44,-76.5197,Colombia,CO,COL,Valle del Cauca,admin,2471474.0,1170417589,619.0
320,Daegu,Daegu,35.8667,128.6,"Korea, South",KR,KOR,Daegu,admin,2461002.0,1410095252,883.52
321,Fortaleza,Fortaleza,-3.7275,-38.5275,Brazil,BR,BRA,Ceará,admin,2452185.0,1076567885,7440.05
322,Guatemala City,Guatemala City,14.6099,-90.5252,Guatemala,GT,GTM,Guatemala,primary,2450212.0,1320197916,220.0
323,Yaoundé,Yaounde,3.8578,11.5181,Cameroon,CM,CMR,Centre,primary,2440462.0,1120298240,180.0
324,Douala,Douala,4.05,9.7,Cameroon,CM,CMR,Littoral,admin,2446945.0,1120494607,210.0
325,Jilin,Jilin,43.85,126.55,China,CN,CHN,Jilin,,2396000.0,1156646448,191126.0
326,Lianshan,Lianshan,40.7503,120.83,China,CN,CHN,Liaoning,minor,2426000.0,1156046704,
327,Lincang,Lincang,23.8864,100.0871,China,CN,CHN,Yunnan,,2429497.0,1156044130,23620.72
328,Antalya,Antalya,36.9081,30.6956,Turkey,TR,TUR,Antalya,admin,2426356.0,1792988434,1417.0
329,Tashkent,Tashkent,41.3,69.2667,Uzbekistan,UZ,UZB,Toshkent,primary,2424100.0,1860331871,334.8
330,Huangshi,Huangshi,30.2018,115.0326,China,CN,CHN,Hubei,minor,2419000.0,1156234290,4582.85
331,Bandung,Bandung,-6.95,107.5667,Indonesia,ID,IDN,Jawa Barat,admin,2394873.0,1360313023,1876.8
332,Nāgpur,Nagpur,21.1539,79.0831,India,IN,IND,Mahārāshtra,,2405665.0,1356365743,227.36
333,Dandong,Dandong,40.1167,124.3833,China,CN,CHN,Liaoning,,2400000.0,1156178316,15030.0
334,Huainan,Huainan,32.4831,117.0164,China,CN,CHN,Anhui,,2409000.0,1156877299,5533.0
335,Shangzhou,Shangzhou,33.868,109.9244,China,CN,CHN,Shaanxi,,2400000.0,1156091241,
336,Bekasi,Bekasi,-6.2333,107.0,Indonesia,ID,IDN,Jawa Barat,,2381053.0,1360006015,210.49
337,Ghāziābād,Ghaziabad,28.6667,77.4167,India,IN,IND,Uttar Pradesh,,2381452.0,1356691871,210.0
338,Tijuana,Tijuana,32.525,-117.0333,Mexico,MX,MEX,Baja California,minor,2384609.0,1484708778,1392.5
339,Jiamusi,Jiamusi,46.8081,130.3653,China,CN,CHN,Heilongjiang,minor,2360000.0,1156350864,31528.0
340,Yangjiang,Yangjiang,21.8556,111.9627,China,CN,CHN,Guangdong,minor,2357000.0,1156123172,7955.27
341,Accra,Accra,5.6037,-0.187,Ghana,GH,GHA,Greater Accra,primary,2291352.0,1288299415,173.0
342,Yuxi,Yuxi,24.3495,102.5432,China,CN,CHN,Yunnan,minor,2303518.0,1156682309,15285.0
343,Fushun,Fushun,41.8708,123.8917,China,CN,CHN,Liaoning,,2300000.0,1156857743,11272.0
344,Anshun,Anshun,26.2456,105.934,China,CN,CHN,Guizhou,,2297612.0,1156415948,9269.0
345,Vancouver,Vancouver,49.25,-123.1,Canada,CA,CAN,British Columbia,,2264823.0,1124825478,2878.52
346,Tangerang,Tangerang,-6.1783,106.6319,Indonesia,ID,IDN,Jawa Barat,,2237006.0,1360002844,153.93
347,Konya,Konya,37.8714,32.4847,Turkey,TR,TUR,Konya,admin,2232374.0,1792014004,38873.0
348,Queens,Queens,40.7498,-73.7976,United States,US,USA,New York,,2230722.0,1840034002,178.0
349,Yingkou,Yingkou,40.6653,122.2297,China,CN,CHN,Liaoning,minor,2220000.0,1156257074,4970.0
350,Adana,Adana,37.0,35.325,Turkey,TR,TUR,Adana,admin,2220125.0,1792783772,1945.0
351,Medan,Medan,3.6667,98.6667,Indonesia,ID,IDN,Sumatera Utara,admin,2210625.0,1360543171,3146.6
352,Sanmenxia,Sanmenxia,34.7736,111.195,China,CN,CHN,Henan,,2213000.0,1156529682,9936.65
353,Indore,Indore,22.7206,75.8472,India,IN,IND,Madhya Pradesh,,2201927.0,1356402812,1200.0
354,Ma’anshan,Ma'anshan,31.7135,118.3605,China,CN,CHN,Anhui,minor,2202899.0,1156847452,
355,Pingliang,Pingliang,35.5412,106.6819,China,CN,CHN,Gansu,minor,2190000.0,1156216904,11196.71
356,Quzhou,Quzhou,28.9545,118.8763,China,CN,CHN,Zhejiang,,2185000.0,1156180376,8846.0
357,Baku,Baku,40.3667,49.8352,Azerbaijan,AZ,AZE,Bakı,primary,2181800.0,1031946365,2140.0
358,Gaoping,Gaoping,30.7804,106.13,China,CN,CHN,Sichuan,minor,2174000.0,1156522457,946.0
359,Huaibei,Huaibei,33.9562,116.789,China,CN,CHN,Anhui,,2158000.0,1156142626,2740.9
360,Xining,Xining,36.6239,101.7787,China,CN,CHN,Qinghai,admin,2154000.0,1156081448,7372.0
361,Yan’an,Yan'an,36.5952,109.4863,China,CN,CHN,Shaanxi,,2150000.0,1156546342,37031.3
362,Havana,Havana,23.1367,-82.3589,Cuba,CU,CUB,La Habana,primary,2141652.0,1192752771,728.26
363,Phnom Penh,Phnom Penh,11.5696,104.921,Cambodia,KH,KHM,Phnom Penh,primary,2129371.0,1116260534,679.0
364,Fukuoka,Fukuoka,33.5903,130.4019,Japan,JP,JPN,Fukuoka,admin,2128000.0,1392576294,343.39
365,Mogadishu,Mogadishu,2.0408,45.3425,Somalia,SO,SOM,Banaadir,primary,2120000.0,1706893395,800.0
366,Jincheng,Jincheng,35.4906,112.8483,China,CN,CHN,Shanxi,minor,2120000.0,1156163376,9490.0
367,Lishui,Lishui,28.45,119.9167,China,CN,CHN,Zhejiang,minor,2116957.0,1156858793,17298.0
368,Qingyang,Qingyang,24.8141,118.5792,China,CN,CHN,Fujian,minor,2111000.0,1156273372,27119.0
369,Riverside,Riverside,33.9381,-117.3948,United States,US,USA,California,,2107852.0,1840020551,
370,Baltimore,Baltimore,39.3051,-76.6144,United States,US,USA,Maryland,,2106068.0,1840001592,92.05
371,Haiphong,Haiphong,20.8,106.6667,Vietnam,VN,VNM,Hải Phòng,admin,2103500.0,1704000623,1527.4
372,Las Vegas,Las Vegas,36.2333,-115.2654,United States,US,USA,Nevada,,2104198.0,1840020364,141.84
373,Laibin,Laibin,23.7333,109.2333,China,CN,CHN,Guangxi,,2099711.0,1156925734,13400.0
374,Rawalpindi,Rawalpindi,33.6007,73.0679,Pakistan,PK,PAK,Punjab,minor,2098231.0,1586344001,479.0
375,Kumasi,Kumasi,6.6833,-1.6167,Ghana,GH,GHA,Ashanti,admin,2069350.0,1288181103,254.0
376,Portland,Portland,45.5372,-122.65,United States,US,USA,Oregon,,2074775.0,1840019941,
377,Vadodara,Vadodara,22.3,73.2,India,IN,IND,Gujarāt,,2065771.0,1356705249,260.33
378,Perth,Perth,-31.9522,115.8589,Australia,AU,AUS,Western Australia,admin,2059484.0,1036178956,
379,Puning,Puning,23.2993,116.1586,China,CN,CHN,Guangdong,,2055552.0,1156756494,1620.0
380,San Antonio,San Antonio,29.4658,-98.5253,United States,US,USA,Texas,,2049293.0,1840022220,504.64
381,Haikou,Haikou,20.02,110.32,China,CN,CHN,Hainan,admin,2046189.0,1156183327,2280.0
382,Vishākhapatnam,Vishakhapatnam,17.7333,83.3167,India,IN,IND,Andhra Pradesh,,2035922.0,1356692563,
383,Gaziantep,Gaziantep,37.0667,37.3833,Turkey,TR,TUR,Gaziantep,admin,2028563.0,1792911843,7.64
384,Minsk,Minsk,53.9022,27.5618,Belarus,BY,BLR,Minsk,primary,2020600.0,1112348503,409.5
385,St. Louis,St. Louis,38.6358,-90.2451,United States,US,USA,Missouri,,2024074.0,1840001651,8458.0
386,Bamako,Bamako,12.6458,-7.9922,Mali,ML,MLI,Bamako,primary,2009109.0,1466965925,17141.61
387,Quito,Quito,-0.2186,-78.5097,Ecuador,EC,ECU,Pichincha,primary,2011388.0,1218441993,4217.95
388,Pingxiang,Pingxiang,27.6333,113.85,China,CN,CHN,Jiangxi,minor,2001027.0,1156066465,3824.0
389,Chongzuo,Chongzuo,22.4167,107.3667,China,CN,CHN,Guangxi,minor,1994285.0,1156438670,17345.0
390,Şanlıurfa,Sanliurfa,37.1583,38.7917,Turkey,TR,TUR,Şanlıurfa,admin,1985753.0,1792937570,3668.76
391,Kananga,Kananga,-5.897,22.4488,Congo (Kinshasa),CD,COD,Kasaï Central,admin,1971704.0,1180172460,7428.0
392,Peshawar,Peshawar,34.0,71.5,Pakistan,PK,PAK,Khyber Pakhtunkhwa,admin,1970042.0,1586851102,1257.0
393,Sapporo,Sapporo,43.0621,141.3544,Japan,JP,JPN,Hokkaidō,admin,1958756.0,1392000195,1121.26
394,Jixi,Jixi,45.2937,130.965,China,CN,CHN,Heilongjiang,minor,1950000.0,1156393765,22488.47
395,Caracas,Caracas,10.5,-66.9333,Venezuela,VE,VEN,Distrito Capital,primary,1943901.0,1862748204,4715.1
396,Fuxin,Fuxin,42.0127,121.6486,China,CN,CHN,Liaoning,,1930000.0,1156141954,10445.0
397,Leeds,Leeds,53.7997,-1.5492,United Kingdom,GB,GBR,Leeds,,1901934.0,1826343963,213.0
398,Sacramento,Sacramento,38.5667,-121.4683,United States,US,USA,California,admin,1898019.0,1840021491,99.77
399,Blantyre,Blantyre,-15.7861,35.0058,Malawi,MW,MWI,Blantyre,admin,1895973.0,1454145012,240.0
400,Tainan,Tainan,22.9833,120.1833,Taiwan,TW,TWN,Tainan,admin,1883831.0,1158061376,2191.65
401,Bucharest,Bucharest,44.4,26.0833,Romania,RO,ROU,Bucureşti,primary,1883425.0,1642414442,1811.0
402,Wuwei,Wuwei,37.9278,102.6329,China,CN,CHN,Gansu,minor,1890000.0,1156760291,
403,Bhopāl,Bhopal,23.25,77.4167,India,IN,IND,Madhya Pradesh,admin,1883381.0,1356734039,648.24
404,Curitiba,Curitiba,-25.4297,-49.2719,Brazil,BR,BRA,Paraná,admin,1879355.0,1076701712,15416.9
405,Xiping,Xiping,40.08,113.3,China,CN,CHN,Shanxi,minor,1873000.0,1156898522,
406,Asunción,Asuncion,-25.3,-57.6333,Paraguay,PY,PRY,Asunción,primary,1870000.0,1600057911,1014.0
407,Saidu Sharif,Saidu Sharif,34.75,72.3572,Pakistan,PK,PAK,Khyber Pakhtunkhwa,minor,1860310.0,1586619596,
408,Vienna,Vienna,48.2083,16.3731,Austria,AT,AUT,Wien,primary,1840573.0,1040261752,414.78
409,Aleppo,Aleppo,36.2,37.15,Syria,SY,SYR,Ḩalab,admin,1834093.0,1760366651,190.0
410,Hamburg,Hamburg,53.55,10.0,Germany,DE,DEU,Hamburg,admin,1841179.0,1276041799,755.22
411,Meru,Meru,0.05,37.65,Kenya,KE,KEN,Meru,admin,1833000.0,1404588252,
412,Brazzaville,Brazzaville,-4.2667,15.2833,Congo (Brazzaville),CG,COG,Brazzaville,primary,1827000.0,1178340306,263.9
413,Orlando,Orlando,28.4772,-81.3369,United States,US,USA,Florida,,1822394.0,1840015099,1690.3
414,Mersin,Mersin,36.8,34.6167,Turkey,TR,TUR,Mersin,admin,1814468.0,1792520282,
415,Almaty,Almaty,43.25,76.9,Kazakhstan,KZ,KAZ,Almaty,,1806833.0,1398351701,9395.0
416,Barranquilla,Barranquilla,10.96,-74.8,Colombia,CO,COL,Atlántico,admin,1798000.0,1170179113,
417,Kyōto,Kyoto,35.0111,135.7669,Japan,JP,JPN,Kyōto,admin,1805000.0,1392622735,827.83
418,Manaus,Manaus,-3.1,-60.0167,Brazil,BR,BRA,Amazonas,admin,1802014.0,1076607274,11401.09
419,Liaoyang,Liaoyang,41.2643,123.1772,China,CN,CHN,Liaoning,,1800000.0,1156202749,4731.0
420,Baiyin,Baiyin,36.5448,104.1766,China,CN,CHN,Gansu,minor,1799000.0,1156140738,21200.0
421,San Jose,San Jose,37.3019,-121.8486,United States,US,USA,California,,1798103.0,1840021570,
422,Warsaw,Warsaw,52.2167,21.0333,Poland,PL,POL,Mazowieckie,primary,1790658.0,1616024847,6100.43
423,Shengli,Shengli,37.45,118.4667,China,CN,CHN,Shandong,minor,1790000.0,1156672254,
424,Lubumbashi,Lubumbashi,-11.6697,27.4581,Congo (Kinshasa),CD,COD,Haut-Katanga,admin,1786397.0,1180506234,747.0
425,Damascus,Damascus,33.5131,36.2919,Syria,SY,SYR,Dimashq,primary,1754000.0,1760685964,105.0
426,Shuyangzha,Shuyangzha,34.1299,118.7734,China,CN,CHN,Jiangsu,,1770000.0,1156051957,
427,Shangqiu,Shangqiu,34.4504,115.65,China,CN,CHN,Henan,,1753000.0,1156805441,10704.0
428,Eşfahān,Esfahan,32.6447,51.6675,Iran,IR,IRN,Eşfahān,admin,1756126.0,1364023865,551.0
429,Budapest,Budapest,47.4983,19.0408,Hungary,HU,HUN,Budapest,primary,1752286.0,1348611435,7626.0
430,Heihe,Heihe,50.2458,127.4886,China,CN,CHN,Heilongjiang,minor,1750000.0,1156339225,54390.0
431,Lusaka,Lusaka,-15.4167,28.2833,Zambia,ZM,ZMB,Lusaka,primary,1742979.0,1894157390,418.0
432,Diyarbakır,Diyarbakir,37.9108,40.2367,Turkey,TR,TUR,Diyarbakır,admin,1732396.0,1792536241,
433,Chinchvad,Chinchvad,18.6278,73.8131,India,IN,IND,Mahārāshtra,,1729320.0,1356475483,
434,Shuozhou,Shuozhou,39.3408,112.4292,China,CN,CHN,Shanxi,minor,1714857.0,1156227167,10662.0
435,Vitória,Vitoria,-20.324,-40.366,Brazil,BR,BRA,Espírito Santo,admin,1704000.0,1076376829,
436,Cleveland,Cleveland,41.4767,-81.6804,United States,US,USA,Ohio,,1710093.0,1840000596,11624.49
437,Pittsburgh,Pittsburgh,40.4396,-79.9762,United States,US,USA,Pennsylvania,,1703266.0,1840001254,5343.0
438,Mecca,Mecca,21.4225,39.8261,Saudi Arabia,SA,SAU,Makkah al Mukarramah,admin,1700000.0,1682169241,1200.0
439,Patna,Patna,25.61,85.1414,India,IN,IND,Bihār,admin,1684222.0,1356821429,1167.0
440,Mosul,Mosul,36.3667,43.1167,Iraq,IQ,IRQ,Nīnawá,admin,1694000.0,1368194914,180.0
441,Austin,Austin,30.3004,-97.7522,United States,US,USA,Texas,admin,1687311.0,1840019590,4285.7
442,Sanzhou,Sanzhou,30.82,108.4,China,CN,CHN,Chongqing,,1680000.0,1156025536,
443,Conakry,Conakry,9.5092,-13.7122,Guinea,GN,GIN,Conakry,primary,1667864.0,1324568159,450.0
444,Kampala,Kampala,0.3136,32.5811,Uganda,UG,UGA,Kampala,primary,1659600.0,1800406299,8451.9
445,Ecatepec,Ecatepec,19.6097,-99.06,Mexico,MX,MEX,México,minor,1656107.0,1484003694,160.17
446,Cincinnati,Cincinnati,39.1413,-84.5061,United States,US,USA,Ohio,,1662691.0,1840003814,79.56
447,Makassar,Makassar,-5.1331,119.4136,Indonesia,ID,IDN,Sulawesi Selatan,admin,1651146.0,1360051337,2689.89
448,Yushan,Yushan,31.3867,120.9766,China,CN,CHN,Jiangsu,minor,1651200.0,1156245000,
449,Ludhiāna,Ludhiana,30.9083,75.8486,India,IN,IND,Punjab,,1649000.0,1356929498,159.0
450,Newcastle,Newcastle,55.0077,-1.6578,United Kingdom,GB,GBR,Newcastle upon Tyne,,1650000.0,1826292220,
451,Depok,Depok,-6.394,106.8225,Indonesia,ID,IDN,Jawa Barat,,1631951.0,1360962899,200.29
452,Zhongli,Zhongli,24.965,121.2168,Taiwan,TW,TWN,Taoyuan,,1632616.0,1158025380,
453,Kansas City,Kansas City,39.1239,-94.5541,United States,US,USA,Missouri,,1636715.0,1840008535,8472.0
454,Rabat,Rabat,34.0253,-6.8361,Morocco,MA,MAR,Rabat-Salé-Kénitra,primary,1628000.0,1504023252,117.0
455,Ouagadougou,Ouagadougou,12.3572,-1.5353,Burkina Faso,BF,BFA,Centre,primary,1626950.0,1854029208,2805.0
456,Davao,Davao,7.0667,125.6,Philippines,PH,PHL,Davao,admin,1632991.0,1608906877,
457,Manhattan,Manhattan,40.7834,-73.9662,United States,US,USA,New York,,1628706.0,1840034000,33.58
458,Semarang,Semarang,-6.9667,110.4167,Indonesia,ID,IDN,Jawa Tengah,admin,1621384.0,1360745537,1643.4
459,Yinchuan,Yinchuan,38.4795,106.2254,China,CN,CHN,Ningxia,admin,1616000.0,1156359072,8874.61
460,Multan,Multan,30.1978,71.4711,Pakistan,PK,PAK,Punjab,minor,1606481.0,1586256291,3721.0
461,Caloocan City,Caloocan City,14.65,120.9667,Philippines,PH,PHL,Caloocan,admin,1583978.0,1608897690,55.8
462,Harare,Harare,-17.8292,31.0522,Zimbabwe,ZW,ZWE,Harare,primary,1606000.0,1716196799,960.6
463,Novosibirsk,Novosibirsk,55.0333,82.9167,Russia,RU,RUS,Novosibirskaya Oblast’,admin,1602915.0,1643399240,502.7
464,Chengtangcun,Chengtangcun,35.0833,117.15,China,CN,CHN,Shandong,,1603659.0,1156883901,
465,Āgra,Agra,27.18,78.02,India,IN,IND,Uttar Pradesh,,1585705.0,1356187395,121.0
466,Karaj,Karaj,35.8327,50.9915,Iran,IR,IRN,Alborz,admin,1592492.0,1364258511,162.0
467,Indianapolis,Indianapolis,39.7771,-86.1458,United States,US,USA,Indiana,admin,1588961.0,1840030084,367.97
468,Jingdezhen,Jingdezhen,29.2942,117.2036,China,CN,CHN,Jiangxi,minor,1587477.0,1156038165,5256.0
469,Puebla,Puebla,19.0333,-98.1833,Mexico,MX,MEX,Puebla,admin,1576259.0,1484416394,34306.0
470,Kalyān,Kalyan,19.2502,73.1602,India,IN,IND,Mahārāshtra,,1576614.0,1356172246,137.15
471,Madurai,Madurai,9.9197,78.1194,India,IN,IND,Tamil Nādu,minor,1561129.0,1356257289,147.97
472,Gujranwala,Gujranwala,32.15,74.1833,Pakistan,PK,PAK,Punjab,minor,1569090.0,1586400472,3198.0
473,Benxi,Benxi,41.292,123.761,China,CN,CHN,Liaoning,,1567000.0,1156097909,8435.0
474,Jamshedpur,Jamshedpur,22.8,86.1833,India,IN,IND,Jharkhand,,1558000.0,1356501259,224.0
475,Zhuhai,Zhuhai,22.2769,113.5678,China,CN,CHN,Guangdong,minor,1562000.0,1156722242,17572.9
476,Recife,Recife,-8.0539,-34.8808,Brazil,BR,BRA,Pernambuco,admin,1555039.0,1076137337,2768.0
477,Columbus,Columbus,39.9862,-82.985,United States,US,USA,Ohio,admin,1562009.0,1840003760,
478,Tabrīz,Tabriz,38.0833,46.2833,Iran,IR,IRN,Āz̄arbāyjān-e Sharqī,admin,1558693.0,1364141756,1500.0
479,Santiago,Santiago,19.5,-70.67,Dominican Republic,DO,DOM,Cibao Norte,admin,1550753.0,1214985348,641.0
480,Maracaibo,Maracaibo,10.6333,-71.6333,Venezuela,VE,VEN,Zulia,admin,1551539.0,1862072711,1393.0
481,Beihai,Beihai,21.4667,109.1,China,CN,CHN,Guangxi,,1539251.0,1156421449,3337.0
482,Shuangyashan,Shuangyashan,46.6388,131.1545,China,CN,CHN,Heilongjiang,,1530000.0,1156245904,26483.0
483,Kōbe,Kobe,34.6913,135.183,Japan,JP,JPN,Hyōgo,admin,1522944.0,1392978082,557.02
484,Charlotte,Charlotte,35.208,-80.8304,United States,US,USA,North Carolina,,1512923.0,1840014557,309.25
485,Yucheng,Yucheng,29.9888,103.0007,China,CN,CHN,Sichuan,minor,1512000.0,1156817119,
486,Changshu,Changshu,31.65,120.7333,China,CN,CHN,Jiangsu,,1510100.0,1156901538,1264.0
487,Ximeicun,Ximeicun,24.9633,118.3811,China,CN,CHN,Fujian,,1508000.0,1156173813,
488,Jianguang,Jianguang,28.1958,115.7833,China,CN,CHN,Jiangxi,,1507402.0,1156545200,
489,Gwangju,Gwangju,35.1667,126.9167,"Korea, South",KR,KOR,Gwangju,admin,1501557.0,1410000087,501.24
490,Xushan,Xushan,30.1697,121.2665,China,CN,CHN,Zhejiang,minor,1502000.0,1156046916,
491,Guiping,Guiping,23.4,110.0833,China,CN,CHN,Guangxi,minor,1496904.0,1156165517,4074.0
492,Nāsik,Nasik,20.0,73.7833,India,IN,IND,Mahārāshtra,,1486053.0,1356562598,267.0
493,Porto Alegre,Porto Alegre,-30.0328,-51.23,Brazil,BR,BRA,Rio Grande do Sul,admin,1484941.0,1076658221,496.82
494,Zhangjiajie,Zhangjiajie,29.1255,110.4844,China,CN,CHN,Hunan,minor,1486000.0,1156072884,9518.0
495,Valencia,Valencia,10.1667,-68.0,Venezuela,VE,VEN,Carabobo,admin,1484430.0,1862309871,628.81
496,Virginia Beach,Virginia Beach,36.7335,-76.0435,United States,US,USA,Virginia,,1478868.0,1840003871,497.5
497,Daejeon,Daejeon,36.351,127.385,"Korea, South",KR,KOR,Daejeon,admin,1475221.0,1410993875,539.85
498,Munich,Munich,48.1372,11.5755,Germany,DE,DEU,Bavaria,admin,1471508.0,1276692352,310.43
499,Yekaterinburg,Yekaterinburg,56.8356,60.6128,Russia,RU,RUS,Sverdlovskaya Oblast’,admin,1468833.0,1643582706,495.0
500,Auckland,Auckland,-36.85,174.7833,New Zealand,NZ,NZL,Auckland,admin,1467800.0,1554435911,607.1
501,Yunfu,Yunfu,22.9242,112.0353,China,CN,CHN,Guangdong,minor,1470000.0,1156057251,7813.4
502,Huangshan,Huangshan,29.7132,118.3151,China,CN,CHN,Anhui,minor,1470000.0,1156527426,
503,Huazhou,Huazhou,32.6832,112.079,China,CN,CHN,Henan,minor,1468061.0,1156796734,
504,Shīrāz,Shiraz,29.61,52.5425,Iran,IR,IRN,Fārs,admin,1460665.0,1364432238,240.0
505,León de los Aldama,Leon de los Aldama,21.1167,-101.6833,Mexico,MX,MEX,Guanajuato,minor,1454793.0,1484811199,1219.67
506,Pizhou,Pizhou,34.3422,118.0097,China,CN,CHN,Jiangsu,,1458038.0,1156114238,2088.0
507,Palembang,Palembang,-2.9833,104.7644,Indonesia,ID,IDN,Sumatera Selatan,admin,1452456.0,1360902897,400.22
508,Kharkiv,Kharkiv,50.0,36.2292,Ukraine,UA,UKR,Kharkivs’ka Oblast’,admin,1446107.0,1804588111,350.0
509,Kawanakajima,Kawanakajima,35.53,139.705,Japan,JP,JPN,Kanagawa,,1437266.0,1392879600,
510,Lianjiang,Lianjiang,21.6146,110.2794,China,CN,CHN,Guangdong,,1443099.0,1156944106,
511,Chizhou,Chizhou,30.6583,117.4849,China,CN,CHN,Anhui,minor,1430000.0,1156131504,9423.0
512,Leizhou,Leizhou,20.9147,110.0806,China,CN,CHN,Guangdong,,1427664.0,1156863840,2523.0
513,Guyuan,Guyuan,36.008,106.2782,China,CN,CHN,Ningxia,,1426000.0,1156817541,14412.83
514,Rui’an,Rui'an,27.778,120.6526,China,CN,CHN,Zhejiang,,1424667.0,1156993705,1271.0
515,Birstall,Birstall,52.6736,-1.12,United Kingdom,GB,GBR,Leicester,,1424216.0,1826141026,
516,Muscat,Muscat,23.6139,58.5922,Oman,OM,OMN,Masqaţ,primary,1421409.0,1512035506,3797.0
517,Hebi,Hebi,35.7497,114.2887,China,CN,CHN,Henan,,1419000.0,1156114258,2182.0
518,Jingling,Jingling,30.6667,113.1667,China,CN,CHN,Hubei,,1418913.0,1156060544,2622.0
519,Bronx,Bronx,40.8501,-73.8662,United States,US,USA,New York,,1418207.0,1840033999,57.0
520,The Hague,The Hague,52.08,4.27,Netherlands,NL,NLD,Zuid-Holland,primary,1406000.0,1528799905,3043.0
521,Owerri,Owerri,5.4833,7.0333,Nigeria,NG,NGA,Imo,admin,1401873.0,1566679132,
522,Sharjah,Sharjah,25.3575,55.3919,United Arab Emirates,AE,ARE,Ash Shāriqah,admin,1400000.0,1784152993,235.5
523,Farīdābād,Faridabad,28.4333,77.3167,India,IN,IND,Haryāna,,1394000.0,1356013205,
524,Ulaanbaatar,Ulaanbaatar,47.9203,106.9172,Mongolia,MN,MNG,Ulaanbaatar,primary,1396288.0,1496024767,4704.4
525,Goiânia,Goiania,-16.6789,-49.2539,Brazil,BR,BRA,Goiás,admin,1393575.0,1076034054,789.0
526,Belém,Belem,-1.4558,-48.5039,Brazil,BR,BRA,Pará,admin,1393399.0,1076646823,1059.4
527,Kayseri,Kayseri,38.7333,35.4833,Turkey,TR,TUR,Kayseri,admin,1389680.0,1792945815,
528,Yueqing,Yueqing,28.1188,120.9621,China,CN,CHN,Zhejiang,,1389332.0,1156900058,
529,Belgrade,Belgrade,44.8167,20.4667,Serbia,RS,SRB,Beograd,primary,1378682.0,1688374696,3222.6
530,Pingdu,Pingdu,36.7833,119.9556,China,CN,CHN,Shandong,,1378900.0,1156157078,
531,Aurangābād,Aurangabad,19.88,75.32,India,IN,IND,Mahārāshtra,,1371330.0,1356840670,139.0
532,Yutan,Yutan,28.3147,112.554,China,CN,CHN,Hunan,minor,1368117.0,1156592042,
533,Wenling,Wenling,28.3797,121.3718,China,CN,CHN,Zhejiang,,1366794.0,1156052493,1079.0
534,Islamabad,Islamabad,33.6989,73.0369,Pakistan,PK,PAK,Islāmābād,primary,1365000.0,1586306717,906.5
535,Milwaukee,Milwaukee,43.0642,-87.9673,United States,US,USA,Wisconsin,,1365787.0,1840003046,96.81
536,Milan,Milan,45.4669,9.19,Italy,IT,ITA,Lombardy,admin,1351562.0,1380724377,181.76
537,Sofia,Sofia,42.6975,23.3241,Bulgaria,BG,BGR,Sofia-Grad,primary,1355142.0,1100762037,10738.0
538,Adelaide,Adelaide,-34.9289,138.6011,Australia,AU,AUS,South Australia,admin,1345777.0,1036538171,
539,Samsun,Samsun,41.2867,36.33,Turkey,TR,TUR,Samsun,admin,1335716.0,1792169057,1055.0
540,Rājkot,Rajkot,22.2969,70.7984,India,IN,IND,Gujarāt,,1335397.0,1356317190,170.0
541,Khulna,Khulna,22.8167,89.55,Bangladesh,BD,BGD,Khulna,admin,1311100.0,1050667339,59.57
542,Córdoba,Cordoba,-31.4167,-64.1833,Argentina,AR,ARG,Córdoba,admin,1329604.0,1032803249,
543,Guarulhos,Guarulhos,-23.4667,-46.5333,Brazil,BR,BRA,São Paulo,,1324781.0,1076730420,318.68
544,Juárez,Juarez,31.7386,-106.487,Mexico,MX,MEX,Chihuahua,minor,1321004.0,1484840083,
545,Prague,Prague,50.0833,14.4167,Czechia,CZ,CZE,"Praha, Hlavní Město",primary,1324277.0,1203744823,496.0
546,Montevideo,Montevideo,-34.8667,-56.1667,Uruguay,UY,URY,Montevideo,primary,1319108.0,1858107000,1640.0
547,Mbuji-Mayi,Mbuji-Mayi,-6.1209,23.5967,Congo (Kinshasa),CD,COD,Kasaï Oriental,admin,1295000.0,1180399586,135.12
548,Fuqing,Fuqing,25.7232,119.3735,China,CN,CHN,Fujian,minor,1316000.0,1156893569,
549,Xintai,Xintai,35.91,117.78,China,CN,CHN,Shandong,,1315942.0,1156761230,1933.0
550,Doha,Doha,25.3,51.5333,Qatar,QA,QAT,Ad Dawḩah,primary,1312947.0,1634459660,132.0
551,Saitama,Saitama,35.8617,139.6453,Japan,JP,JPN,Saitama,admin,1307931.0,1392017719,
552,Hiroshima,Hiroshima,34.3853,132.4553,Japan,JP,JPN,Hiroshima,admin,1306589.0,1392373695,906.68
553,Meerut,Meerut,28.99,77.7,India,IN,IND,Uttar Pradesh,,1305429.0,1356390476,450.0
554,Yushu,Yushu,44.8249,126.5451,China,CN,CHN,Jilin,,1304436.0,1156326773,
555,Rongcheng,Rongcheng,26.2312,104.0966,China,CN,CHN,Yunnan,,1302891.0,1156122888,
556,Yangquan,Yangquan,37.8576,113.5762,China,CN,CHN,Shanxi,minor,1300000.0,1156157844,5221.9
557,Haicheng,Haicheng,40.8523,122.7474,China,CN,CHN,Liaoning,minor,1293877.0,1156052713,
558,Gaozhou,Gaozhou,21.9392,110.8461,China,CN,CHN,Guangdong,,1288665.0,1156785303,3276.0
559,Yingtan,Yingtan,28.2333,117.0,China,CN,CHN,Jiangxi,,1288615.0,1156301061,3554.0
560,Huaiyin,Huaiyin,33.58,119.03,China,CN,CHN,Jiangsu,,1264000.0,1156662372,
561,Wuzhong,Wuzhong,37.9874,106.1919,China,CN,CHN,Ningxia,minor,1284000.0,1156139322,
562,Jabalpur,Jabalpur,23.1667,79.9333,India,IN,IND,Madhya Pradesh,,1267564.0,1356115460,263.0
563,Thāne,Thane,19.18,72.9633,India,IN,IND,Mahārāshtra,,1261517.0,1356681152,
564,Zhangye,Zhangye,38.9355,100.4553,China,CN,CHN,Gansu,minor,1270000.0,1156180353,42000.0
565,Rucheng,Rucheng,32.3852,120.5634,China,CN,CHN,Jiangsu,minor,1267066.0,1156323529,
566,Nizhniy Novgorod,Nizhniy Novgorod,56.3269,44.0075,Russia,RU,RUS,Nizhegorodskaya Oblast’,admin,1264075.0,1643012126,460.0
567,Comayagüela,Comayaguela,14.0833,-87.2167,Honduras,HN,HND,Francisco Morazán,,1250000.0,1340762485,1502.0
568,Yangshe,Yangshe,31.8775,120.5512,China,CN,CHN,Jiangsu,minor,1253100.0,1156203000,
569,Shaoyang,Shaoyang,32.9387,119.8404,China,CN,CHN,Jiangsu,minor,1253548.0,1156668366,20829.63
570,Dhanbād,Dhanbad,23.7928,86.435,India,IN,IND,Jharkhand,,1246000.0,1356103392,
571,Yichun,Yichun,47.7235,128.8893,China,CN,CHN,Heilongjiang,minor,1250000.0,1156757274,
572,Laiwu,Laiwu,36.1833,117.6667,China,CN,CHN,Shandong,,1248636.0,1156207332,2246.21
573,Kazan,Kazan,55.7908,49.1144,Russia,RU,RUS,Tatarstan,admin,1243500.0,1643101260,425.3
574,Dayan,Dayan,26.8808,100.2208,China,CN,CHN,Yunnan,,1244769.0,1156828380,
575,Suwon,Suwon,37.2858,127.01,"Korea, South",KR,KOR,Gyeonggi,admin,1234300.0,1410679777,121.04
576,Jiangyin,Jiangyin,31.9087,120.2653,China,CN,CHN,Jiangsu,,1241045.0,1156033234,
577,Yongcheng,Yongcheng,33.9317,116.4459,China,CN,CHN,Henan,,1240382.0,1156841802,2068.0
578,Calgary,Calgary,51.05,-114.0667,Canada,CA,CAN,Alberta,,1239220.0,1124690423,5110.21
579,Cần Thơ,Can Tho,10.0333,105.7833,Vietnam,VN,VNM,Cần Thơ,admin,1237300.0,1704783472,1439.0
580,Abuja,Abuja,9.0556,7.4914,Nigeria,NG,NGA,Federal Capital Territory,primary,1235880.0,1566342270,1769.0
581,Yiwu,Yiwu,29.3081,120.0698,China,CN,CHN,Zhejiang,minor,1234015.0,1156078044,2849.53
582,Mandalay,Mandalay,21.9769,96.0869,Burma,MM,MMR,Mandalay,admin,1225546.0,1104468217,163.84
583,Beidao,Beidao,34.6,105.92,China,CN,CHN,Gansu,minor,1225000.0,1156137209,
584,Al Başrah,Al Basrah,30.4889,47.81,Iraq,IQ,IRQ,Al Başrah,admin,1225793.0,1368714645,181.0
585,Shuangshui,Shuangshui,26.5944,104.8333,China,CN,CHN,Guizhou,,1221000.0,1156070389,
586,Sevilla,Sevilla,37.3828,-5.9731,Spain,ES,ESP,Andalusia,admin,1212045.0,1724991838,140.0
587,Vila Velha,Vila Velha,3.2167,-51.2167,Brazil,BR,BRA,Amapá,,1209091.0,1076575691,208.0
588,Allahābād,Allahabad,25.455,81.84,India,IN,IND,Uttar Pradesh,,1201000.0,1356718332,365.0
589,Vārānasi,Varanasi,25.3189,83.0128,India,IN,IND,Uttar Pradesh,,1198491.0,1356145782,112.0
590,Tunis,Tunis,36.8008,10.18,Tunisia,TN,TUN,Tunis,primary,1200000.0,1788742103,2668.0
591,Chelyabinsk,Chelyabinsk,55.15,61.4,Russia,RU,RUS,Chelyabinskaya Oblast’,admin,1202371.0,1643224011,530.0
592,Mombasa,Mombasa,-4.05,39.6667,Kenya,KE,KEN,Mombasa,admin,1200000.0,1404512373,219.9
593,Providence,Providence,41.823,-71.4187,United States,US,USA,Rhode Island,admin,1203230.0,1840003289,
594,Qom,Qom,34.6461,50.8789,Iran,IR,IRN,Qom,admin,1201158.0,1364701633,
595,Maiduguri,Maiduguri,11.8333,13.15,Nigeria,NG,NGA,Borno,admin,1197497.0,1566540296,
596,Maputo,Maputo,-25.9153,32.5764,Mozambique,MZ,MOZ,Maputo,primary,1191613.0,1508074843,347.69
597,Rosario,Rosario,-32.9575,-60.6394,Argentina,AR,ARG,Santa Fe,minor,1193605.0,1032770677,178.69
598,Benin City,Benin City,6.3176,5.6145,Nigeria,NG,NGA,Edo,admin,1190000.0,1566080151,1204.0
599,Xinyu,Xinyu,27.795,114.9242,China,CN,CHN,Jiangxi,minor,1186700.0,1156138735,3177.68
600,Ahvāz,Ahvaz,31.3203,48.6692,Iran,IR,IRN,Khūzestān,admin,1184788.0,1364350188,185.0
601,Dublin,Dublin,53.3425,-6.2658,Ireland,IE,IRL,Dublin,primary,1173179.0,1372595407,318.0
602,Jacksonville,Jacksonville,30.3322,-81.6749,United States,US,USA,Florida,,1181496.0,1840015031,874.67
603,Medina,Medina,24.4667,39.6,Saudi Arabia,SA,SAU,Al Madīnah al Munawwarah,admin,1180770.0,1682345785,589.0
604,Srīnagar,Srinagar,34.0911,74.8061,India,IN,IND,Jammu and Kashmīr,admin,1180570.0,1356442950,766.0
605,Omsk,Omsk,54.9667,73.3833,Russia,RU,RUS,Omskaya Oblast’,admin,1178391.0,1643360863,572.9
606,Huazhou,Huazhou,21.654,110.6294,China,CN,CHN,Guangdong,,1178809.0,1156282637,
607,Cilacap,Cilacap,-7.7167,109.017,Indonesia,ID,IDN,Jawa Tengah,minor,1174964.0,1360503809,2138.5
608,Xiantao,Xiantao,30.3833,113.4,China,CN,CHN,Hubei,,1175085.0,1156216927,2538.0
609,Bandar Lampung,Bandar Lampung,-5.4294,105.2625,Indonesia,ID,IDN,Lampung,admin,1166761.0,1360243491,169.21
610,Samara,Samara,53.1833,50.1167,Russia,RU,RUS,Samarskaya Oblast’,admin,1169719.0,1643205757,541.38
611,Guankou,Guankou,28.1417,113.625,China,CN,CHN,Hunan,minor,1168056.0,1156249346,
612,Ulsan,Ulsan,35.55,129.3167,"Korea, South",KR,KOR,Ulsan,admin,1166033.0,1410134602,1057.13
613,Dingzhou,Dingzhou,38.5158,114.9845,China,CN,CHN,Hebei,,1165182.0,1156656582,1283.7
614,Campinas,Campinas,-22.9009,-47.0573,Brazil,BR,BRA,São Paulo,,1164098.0,1076145766,3645.0
615,Lianyuan,Lianyuan,27.6961,111.6659,China,CN,CHN,Hunan,minor,1162928.0,1156490109,1830.01
616,Rongcheng,Rongcheng,29.8239,112.9019,China,CN,CHN,Hubei,minor,1162770.0,1156102432,
617,Kaiyuan,Kaiyuan,36.0656,113.8153,China,CN,CHN,Henan,minor,1160000.0,1156441554,
618,Nay Pyi Taw,Nay Pyi Taw,19.8028,96.1583,Burma,MM,MMR,Nay Pyi Taw,primary,1160242.0,1104838105,7054.37
619,Dakar,Dakar,14.7319,-17.4572,Senegal,SN,SEN,Dakar,primary,1146053.0,1686604760,83.0
620,Zhuji,Zhuji,29.7169,120.2314,China,CN,CHN,Zhejiang,minor,1157938.0,1156504227,2311.41
621,Zapopan,Zapopan,20.7167,-103.4,Mexico,MX,MEX,Jalisco,minor,1155790.0,1484198680,893.15
622,Leiyang,Leiyang,26.4179,112.8457,China,CN,CHN,Hunan,minor,1151554.0,1156057789,2656.0
623,Dadukou,Dadukou,26.5849,101.7149,China,CN,CHN,Sichuan,minor,1144000.0,1156901342,
624,Quetta,Quetta,30.192,67.007,Pakistan,PK,PAK,Balochistān,admin,1140000.0,1586556108,3501.0
625,Amritsar,Amritsar,31.6167,74.85,India,IN,IND,Punjab,,1132383.0,1356926507,139.0
626,Callao,Callao,-12.0611,-77.1333,Peru,PE,PER,Callao,admin,1129854.0,1604422141,147.85
627,Alīgarh,Aligarh,27.88,78.08,India,IN,IND,Uttar Pradesh,,1131160.0,1356076391,
628,Yingchuan,Yingchuan,34.1511,113.4733,China,CN,CHN,Henan,minor,1131896.0,1156748426,
629,Tegucigalpa,Tegucigalpa,14.0942,-87.2067,Honduras,HN,HND,Francisco Morazán,primary,1126534.0,1340344059,1502.0
630,Ciudad Nezahualcóyotl,Ciudad Nezahualcoyotl,19.41,-99.03,Mexico,MX,MEX,México,,1109363.0,1484016661,63.74
631,Tripoli,Tripoli,32.8752,13.1875,Libya,LY,LBY,Ţarābulus,primary,1126000.0,1434201852,1507.0
632,Rostov,Rostov,47.2333,39.7167,Russia,RU,RUS,Rostovskaya Oblast’,admin,1125299.0,1643013518,
633,Nezahualcóyotl,Nezahualcoyotl,19.4,-98.9889,Mexico,MX,MEX,México,minor,1110565.0,1484074285,
634,Bhiwandi,Bhiwandi,19.3,73.0667,India,IN,IND,Mahārāshtra,,1125898.0,1356763571,
635,Zhoushan,Zhoushan,30.0162,122.0988,China,CN,CHN,Zhejiang,minor,1121261.0,1156200283,22200.0
636,Tbilisi,Tbilisi,41.7225,44.7925,Georgia,GE,GEO,Tbilisi,primary,1118035.0,1268203191,504.2
637,Ufa,Ufa,54.7333,55.9667,Russia,RU,RUS,Bashkortostan,admin,1115560.0,1643722928,707.93
638,Fès,Fes,34.0433,-5.0033,Morocco,MA,MAR,Fès-Meknès,admin,1112072.0,1504861997,320.0
639,Biên Hòa,Bien Hoa,10.9575,106.8426,Vietnam,VN,VNM,Đồng Nai,admin,1104000.0,1704863046,26408.0
640,Mexicali,Mexicali,32.6633,-115.4678,Mexico,MX,MEX,Baja California,admin,1102342.0,1484788702,113.7
641,Gwalior,Gwalior,26.215,78.1931,India,IN,IND,Madhya Pradesh,,1101981.0,1356363967,289.0
642,Ankang,Ankang,32.6877,109.0235,China,CN,CHN,Shaanxi,,1100000.0,1156255711,34.0
643,Ikare,Ikare,7.5304,5.76,Nigeria,NG,NGA,Ondo,minor,1099931.0,1566683694,
644,Hegang,Hegang,47.3139,130.2775,China,CN,CHN,Heilongjiang,minor,1100000.0,1156541759,14679.88
645,Salt Lake City,Salt Lake City,40.7777,-111.9306,United States,US,USA,Utah,admin,1098526.0,1840021383,110.81
646,Bhilai,Bhilai,21.2167,81.4333,India,IN,IND,Chhattīsgarh,,1097000.0,1356071083,158.0
647,Yuyao,Yuyao,30.0372,121.1546,China,CN,CHN,Zhejiang,,1095000.0,1156221984,1336.8
648,N’Djamena,N'Djamena,12.11,15.05,Chad,TD,TCD,Ville de N’Djaména,primary,1092066.0,1148708596,166.0
649,Hanchuan,Hanchuan,30.652,113.8274,China,CN,CHN,Hubei,,1092700.0,1156149248,84.6
650,Gongzhuling,Gongzhuling,43.5036,124.8088,China,CN,CHN,Jilin,,1092692.0,1156696810,4172.6
651,Copenhagen,Copenhagen,55.6786,12.5635,Denmark,DK,DNK,Hovedstaden,primary,1085000.0,1208763942,1767.52
652,Irbid,Irbid,32.5556,35.85,Jordan,JO,JOR,Irbid,admin,1088100.0,1400221568,1572.0
653,Hāora,Haora,22.59,88.31,India,IN,IND,West Bengal,,1077075.0,1356986516,63.55
654,Cologne,Cologne,50.9422,6.9578,Germany,DE,DEU,North Rhine-Westphalia,,1085664.0,1276015998,405.15
655,Krasnoyarsk,Krasnoyarsk,56.0167,92.8667,Russia,RU,RUS,Krasnoyarskiy Kray,admin,1083865.0,1643544975,348.0
656,Yicheng,Yicheng,31.3697,119.8239,China,CN,CHN,Jiangsu,minor,1082929.0,1156292419,
657,Mizhou,Mizhou,36.0,119.4167,China,CN,CHN,Shandong,minor,1081960.0,1156935002,
658,Nashville,Nashville,36.1715,-86.7843,United States,US,USA,Tennessee,admin,1081903.0,1840036155,525.94
659,Yerevan,Yerevan,40.1814,44.5144,Armenia,AM,ARM,Yerevan,primary,1075800.0,1051074169,223.0
660,Rānchi,Ranchi,23.3556,85.3347,India,IN,IND,Jharkhand,admin,1073440.0,1356110588,652.02
661,Nur-Sultan,Nur-Sultan,51.1333,71.4333,Kazakhstan,KZ,KAZ,Astana,primary,1078362.0,1398516045,810.2
662,Nouakchott,Nouakchott,18.0783,-15.9744,Mauritania,MR,MRT,,primary,1077169.0,1478414984,1000.0
663,Vereeniging,Vereeniging,-26.6736,27.9319,South Africa,ZA,ZAF,Gauteng,,1074000.0,1710271883,188.19
664,Richmond,Richmond,37.5295,-77.4756,United States,US,USA,Virginia,admin,1075798.0,1840001698,
665,São Luís,Sao Luis,-2.53,-44.3028,Brazil,BR,BRA,Maranhão,admin,1073893.0,1076819308,
666,San Pedro Sula,San Pedro Sula,15.5,-88.0333,Honduras,HN,HND,Cortés,admin,1073824.0,1340568412,856.0
667,Taixing,Taixing,32.1724,120.0142,China,CN,CHN,Jiangsu,minor,1073921.0,1156331200,1172.2
668,Memphis,Memphis,35.1046,-89.9773,United States,US,USA,Tennessee,,1066967.0,1840015457,
669,Goyang,Goyang,37.6564,126.835,"Korea, South",KR,KOR,Gyeonggi,minor,1061929.0,1410511255,267.29
670,Bezwāda,Bezwada,16.5167,80.6167,India,IN,IND,Andhra Pradesh,,1048240.0,1356807575,
671,Edmonton,Edmonton,53.5344,-113.4903,Canada,CA,CAN,Alberta,,1062643.0,1124290735,9430.86
672,Xishan,Xishan,27.6609,113.4946,China,CN,CHN,Hunan,minor,1060000.0,1156155575,
673,Barquisimeto,Barquisimeto,10.0678,-69.3467,Venezuela,VE,VEN,Lara,admin,1059092.0,1862860739,276.0
674,Sendai,Sendai,38.2683,140.8694,Japan,JP,JPN,Miyagi,admin,1058070.0,1392457903,786.3
675,Voronezh,Voronezh,51.6717,39.2106,Russia,RU,RUS,Voronezhskaya Oblast’,admin,1047549.0,1643811064,601.0
676,Perm,Perm,58.0139,56.2489,Russia,RU,RUS,Permskiy Kray,admin,1048005.0,1643294442,799.68
677,Changwon,Changwon,35.2281,128.6811,"Korea, South",KR,KOR,Gyeongnam,admin,1046054.0,1410592618,747.12
678,Zhongwei,Zhongwei,37.5139,105.1884,China,CN,CHN,Ningxia,minor,1046000.0,1156956616,16986.1
679,Shouguang,Shouguang,36.8833,118.7333,China,CN,CHN,Shandong,,1039205.0,1156787809,1990.1
680,Bogor,Bogor,-6.6,106.8,Indonesia,ID,IDN,Jawa Barat,,1030720.0,1360771925,118.5
681,Raleigh,Raleigh,35.8325,-78.6435,United States,US,USA,North Carolina,admin,1038738.0,1840014497,147.64
682,Cartagena,Cartagena,10.4236,-75.5253,Colombia,CO,COL,Bolívar,admin,1036412.0,1170886102,
683,Chandīgarh,Chandigarh,30.7353,76.7911,India,IN,IND,Chandīgarh,admin,1026459.0,1356739179,114.0
684,Bishkek,Bishkek,42.8667,74.5667,Kyrgyzstan,KG,KGZ,Bishkek,primary,1027200.0,1417191971,169.9
685,Amsterdam,Amsterdam,52.35,4.9166,Netherlands,NL,NLD,Noord-Holland,primary,1031000.0,1528355309,3043.0
686,Matola,Matola,-25.9667,32.4667,Mozambique,MZ,MOZ,Maputo,,1032197.0,1508768577,373.0
687,Ogbomoso,Ogbomoso,8.1333,4.25,Nigeria,NG,NGA,Oyo,minor,1032000.0,1566373448,253.0
688,Ashgabat,Ashgabat,37.95,58.3833,Turkmenistan,TM,TKM,Ahal,primary,1031992.0,1795049992,440.0
689,E’zhou,E'zhou,30.3972,114.8842,China,CN,CHN,Hubei,minor,1031000.0,1156414637,
690,Maceió,Maceio,-9.6658,-35.735,Brazil,BR,BRA,Alagoas,admin,1029129.0,1076440479,511.0
691,Niamey,Niamey,13.5086,2.1111,Niger,NE,NER,Niamey,primary,1026848.0,1562932886,239.3
692,Managua,Managua,12.15,-86.2667,Nicaragua,NI,NIC,Managua,primary,1028808.0,1558296252,267.17
693,Patam,Patam,1.0678,104.0167,Indonesia,ID,IDN,Kepulauan Riau,,1029808.0,1360893799,
694,Tekirdağ,Tekirdag,40.9833,27.5167,Turkey,TR,TUR,Tekirdağ,admin,1029927.0,1792519395,1111.53
695,Linhai,Linhai,28.8523,121.1409,China,CN,CHN,Zhejiang,,1028813.0,1156451663,2171.0
696,Shubrā al Khaymah,Shubra al Khaymah,30.1286,31.2422,Egypt,EG,EGY,Al Qalyūbīyah,,1025569.0,1818909612,
697,Monrovia,Monrovia,6.3106,-10.8047,Liberia,LR,LBR,Montserrado,primary,1021762.0,1430477826,75.0
698,Wafangdian,Wafangdian,39.6271,121.9972,China,CN,CHN,Liaoning,,1024876.0,1156476417,3576.4
699,Zhongxiang,Zhongxiang,31.169,112.5853,China,CN,CHN,Hubei,,1022514.0,1156631720,4488.0
700,Shymkent,Shymkent,42.3,69.6,Kazakhstan,KZ,KAZ,Ongtüstik Qazaqstan,admin,1018974.0,1398791401,1162.8
701,New Orleans,New Orleans,30.0687,-89.9288,United States,US,USA,Louisiana,,1020886.0,1840001839,3755.2
702,Volgograd,Volgograd,48.7,44.4833,Russia,RU,RUS,Volgogradskaya Oblast’,admin,1015586.0,1643577201,
703,Port-au-Prince,Port-au-Prince,18.5425,-72.3386,Haiti,HT,HTI,Ouest,primary,987310.0,1332401940,158.5
704,Mysore,Mysore,12.3086,76.6531,India,IN,IND,Karnātaka,,1014227.0,1356779323,152.0
705,Odesa,Odesa,46.4775,30.7326,Ukraine,UA,UKR,Odes’ka Oblast’,admin,1010783.0,1804178102,162.42
706,Kathmandu,Kathmandu,27.7167,85.3667,Nepal,NP,NPL,Bāgmatī,primary,975453.0,1524589448,49.45
707,Raipur,Raipur,21.2379,81.6337,India,IN,IND,Chhattīsgarh,admin,1010087.0,1356374983,226.0
708,Nice,Nice,43.7034,7.2663,France,FR,FRA,Provence-Alpes-Côte d’Azur,minor,1006402.0,1250774553,71.92
709,Arequipa,Arequipa,-16.3988,-71.5369,Peru,PE,PER,Arequipa,admin,1008290.0,1604723954,2923.53
710,Port Harcourt,Port Harcourt,4.75,7.0,Nigeria,NG,NGA,Rivers,admin,1005904.0,1566070649,1900.0
711,Rotterdam,Rotterdam,51.92,4.48,Netherlands,NL,NLD,Zuid-Holland,minor,1005000.0,1528892850,3043.0
712,Louisville,Louisville,38.1663,-85.6485,United States,US,USA,Kentucky,,1005654.0,1840030815,397.68
713,Zaoyang,Zaoyang,32.1287,112.7581,China,CN,CHN,Hubei,,1004741.0,1156197076,3277.0
714,Shuizhai,Shuizhai,33.4433,114.8994,China,CN,CHN,Henan,,1003698.0,1156462734,
715,Kota,Kota,25.18,75.83,India,IN,IND,Rājasthān,,1001694.0,1356820310,
716,Abu Dhabi,Abu Dhabi,24.4781,54.3686,United Arab Emirates,AE,ARE,Abū Z̧aby,primary,1000000.0,1784176710,972.0
717,Stockholm,Stockholm,59.3294,18.0686,Sweden,SE,SWE,Stockholm,primary,972647.0,1752425602,6519.0
718,Ottawa,Ottawa,45.4247,-75.695,Canada,CA,CAN,Ontario,,989567.0,1124399363,6767.41
719,Asmara,Asmara,15.3333,38.9167,Eritrea,ER,ERI,Ma’ākel,primary,963000.0,1232791236,45.0
720,Freetown,Freetown,8.4833,-13.2331,Sierra Leone,SL,SLE,Western Area,primary,951000.0,1694085071,81.48
721,Jerusalem,Jerusalem,31.7833,35.2167,Israel,IL,ISR,Southern,primary,919438.0,1376261644,652000.0
722,Panama City,Panama City,9.0,-79.5,Panama,PA,PAN,Panamá,primary,880691.0,1591672475,2560.8
723,Lomé,Lome,6.1319,1.2228,Togo,TG,TGO,Maritime,primary,837437.0,1768409132,280.0
724,Libreville,Libreville,0.3901,9.4544,Gabon,GA,GAB,Estuaire,primary,797003.0,1266952885,189.0
725,Zagreb,Zagreb,45.8,15.95,Croatia,HR,HRV,"Zagreb, Grad",primary,790017.0,1191233290,3719.0
726,Dushanbe,Dushanbe,38.5731,68.7864,Tajikistan,TJ,TJK,Dushanbe,primary,780000.0,1762930616,203.18
727,Lilongwe,Lilongwe,-13.9833,33.7833,Malawi,MW,MWI,Lilongwe,primary,781538.0,1454688499,727.79
728,Cotonou,Cotonou,6.4,2.52,Benin,BJ,BEN,Littoral,primary,762000.0,1204955174,79.0
729,Vientiane,Vientiane,17.9667,102.6,Laos,LA,LAO,Viangchan,primary,760000.0,1418732714,130.0
730,Colombo,Colombo,6.9167,79.8333,Sri Lanka,LK,LKA,Western,primary,752993.0,1144251314,37.31
731,Kigali,Kigali,-1.9536,30.0606,Rwanda,RW,RWA,Kigali,primary,745261.0,1646923541,730.0
732,Pretoria,Pretoria,-25.7464,28.1881,South Africa,ZA,ZAF,Gauteng,primary,741651.0,1710176249,6298.0
733,Bangui,Bangui,4.3732,18.5628,Central African Republic,CF,CAF,Bangui,primary,734350.0,1140080881,67.0
734,Winnipeg,Winnipeg,49.8844,-97.1464,Canada,CA,CAN,Manitoba,,705244.0,1124224963,5306.79
735,Quebec City,Quebec City,46.8139,-71.2081,Canada,CA,CAN,Quebec,,705103.0,1124823933,3408.7
736,Riga,Riga,56.9475,24.1069,Latvia,LV,LVA,Rīga,primary,698529.0,1428586192,7292.8
737,Oslo,Oslo,59.9111,10.7528,Norway,NO,NOR,Oslo,primary,693494.0,1578324706,480.75
738,Chisinau,Chisinau,47.0056,28.8575,Moldova,MD,MDA,Chişinău,primary,685900.0,1498011437,563.3
739,Athens,Athens,37.9794,23.7161,Greece,GR,GRC,Attikí,primary,664046.0,1300715560,2928.71
740,Bujumbura,Bujumbura,-3.3825,29.3611,Burundi,BI,BDI,Bujumbura Mairie,primary,658859.0,1108101689,127.0
741,Helsinki,Helsinki,60.1756,24.9342,Finland,FI,FIN,Uusimaa,primary,642045.0,1246177997,3697.52
742,Skopje,Skopje,41.9833,21.4333,Macedonia,MK,MKD,Skopje,primary,640000.0,1807600615,1854.0
743,Kuwait City,Kuwait City,29.375,47.98,Kuwait,KW,KWT,Al ‘Āşimah,primary,637411.0,1414102075,200.0
744,Kingston,Kingston,17.9714,-76.7931,Jamaica,JM,JAM,Kingston,primary,580000.0,1388709177,
745,Vilnius,Vilnius,54.6833,25.2833,Lithuania,LT,LTU,Vilniaus Miestas,primary,574147.0,1440887149,9731.0
746,San Salvador,San Salvador,13.6989,-89.1914,El Salvador,SV,SLV,San Salvador,primary,567698.0,1222647454,651.31
747,Djibouti,Djibouti,11.595,43.1481,Djibouti,DJ,DJI,Djibouti,primary,562000.0,1262028958,23200.0
748,Lisbon,Lisbon,38.7452,-9.1604,Portugal,PT,PRT,Lisboa,primary,506654.0,1620619017,3015.24
749,Kitchener,Kitchener,43.4186,-80.4728,Canada,CA,CAN,Ontario,,470015.0,1124158530,
750,Tallinn,Tallinn,59.4372,24.745,Estonia,EE,EST,Harjumaa,primary,434562.0,1233260021,159.2
751,Cape Town,Cape Town,-33.925,18.425,South Africa,ZA,ZAF,Western Cape,primary,433688.0,1710680650,2461.0
752,Bratislava,Bratislava,48.1447,17.1128,Slovakia,SK,SVK,Bratislavský,primary,429564.0,1703195001,2053.0
753,Tirana,Tirana,41.33,19.82,Albania,AL,ALB,Tiranë,primary,418495.0,1008162156,1110.03
754,Canberra,Canberra,-35.2931,149.1269,Australia,AU,AUS,Australian Capital Territory,primary,426704.0,1036142029,
755,Wellington,Wellington,-41.2889,174.7772,New Zealand,NZ,NZL,Wellington,primary,418500.0,1554772152,1388.83
756,Beirut,Beirut,33.8869,35.5131,Lebanon,LB,LBN,Beyrouth,primary,361366.0,1422847713,67.0
757,Dodoma,Dodoma,-6.25,35.75,Tanzania,TZ,TZA,Dodoma,primary,410956.0,1834288497,2576.0
758,Halifax,Halifax,44.6475,-63.5906,Canada,CA,CAN,Nova Scotia,,403131.0,1124130981,
759,Bissau,Bissau,11.8592,-15.5956,Guinea-Bissau,GW,GNB,Bissau,primary,395954.0,1624168850,77.5
760,Juba,Juba,4.85,31.6,South Sudan,SS,SSD,Central Equatoria,primary,372410.0,1728444337,336.0
761,Port Moresby,Port Moresby,-9.4789,147.1494,Papua New Guinea,PG,PNG,National Capital,primary,364125.0,1598685395,240.0
762,Yamoussoukro,Yamoussoukro,6.8161,-5.2742,Côte D’Ivoire,CI,CIV,Yamoussoukro,primary,355573.0,1384683557,3500.0
763,Victoria,Victoria,48.4283,-123.3647,Canada,CA,CAN,British Columbia,,335696.0,1124147219,
764,Maseru,Maseru,-29.31,27.48,Lesotho,LS,LSO,Maseru,primary,330790.0,1426977668,138.0
765,Nicosia,Nicosia,35.1725,33.365,Cyprus,CY,CYP,Lefkosía,primary,330000.0,1196944155,51.06
766,Windhoek,Windhoek,-22.57,17.0836,Namibia,,NAM,Khomas,primary,322500.0,1516802003,5133.0
767,Porto-Novo,Porto-Novo,6.4833,2.6167,Benin,BJ,BEN,Ouémé,primary,300000.0,1204172060,110.0
768,Sucre,Sucre,-19.0431,-65.2592,Bolivia,BO,BOL,Chuquisaca,primary,300000.0,1068823873,1768.0
769,San José,San Jose,9.9333,-84.0833,Costa Rica,CR,CRI,San José,primary,288054.0,1188749877,
770,Ljubljana,Ljubljana,46.05,14.5167,Slovenia,SI,SVN,Ljubljana,primary,284355.0,1705917455,2334.0
771,Sarajevo,Sarajevo,43.8667,18.4167,Bosnia And Herzegovina,BA,BIH,"Bosnia and Herzegovina, Federation of",primary,275524.0,1070966777,3350.0
772,Nassau,Nassau,25.0667,-77.3333,"Bahamas, The",BS,BHS,,primary,274400.0,1044318561,
773,Bloemfontein,Bloemfontein,-29.1,26.2167,South Africa,ZA,ZAF,Free State,primary,256185.0,1710495933,6283.99
774,Gaborone,Gaborone,-24.6569,25.9086,Botswana,BW,BWA,Gaborone,primary,231626.0,1072756768,169.0
775,Paramaribo,Paramaribo,5.8667,-55.1667,Suriname,SR,SUR,Paramaribo,primary,223757.0,1740518660,182.0
776,Dili,Dili,-8.5586,125.5736,Timor-Leste,TL,TLS,Díli,primary,222323.0,1626308942,48.27
777,Pristina,Pristina,42.6667,21.1667,Kosovo,XK,XKS,Prishtinë,primary,204725.0,1901760068,30.3
778,Georgetown,Georgetown,6.7833,-58.1667,Guyana,GY,GUY,Demerara-Mahaica,primary,200500.0,1328160906,
779,Malabo,Malabo,3.7521,8.7737,Equatorial Guinea,GQ,GNQ,Bioko Norte,primary,187302.0,1226861333,21.0
780,Brussels,Brussels,50.8467,4.3517,Belgium,BE,BEL,Brussels-Capital Region,primary,185103.0,1056469830,162.4
781,Male,Male,4.175,73.5083,Maldives,MV,MDV,Maale,primary,133019.0,1462441685,
782,Podgorica,Podgorica,42.4397,19.2661,Montenegro,ME,MNE,Podgorica,primary,174515.0,1499454516,1441.0
783,Manama,Manama,26.2167,50.5831,Bahrain,BH,BHR,Al ‘Āşimah,primary,157474.0,1048989486,30.0
784,Port Louis,Port Louis,-20.1667,57.5,Mauritius,MU,MUS,Port Louis,primary,149194.0,1480131261,46.7
785,New Delhi,New Delhi,28.7,77.2,India,IN,IND,Delhi,primary,142004.0,1356215164,42.7
786,Bern,Bern,46.948,7.4474,Switzerland,CH,CHE,Bern,primary,133798.0,1756374318,51.62
787,Reykjavík,Reykjavik,64.1475,-21.935,Iceland,IS,ISL,,primary,128793.0,1352327190,273.0
788,Praia,Praia,14.9177,-23.5092,Cabo Verde,CV,CPV,Praia,primary,127832.0,1132398770,102.6
789,Luxembourg,Luxembourg,49.6106,6.1328,Luxembourg,LU,LUX,Luxembourg,primary,122273.0,1442262731,2586.4
790,Sri Jayewardenepura Kotte,Sri Jayewardenepura Kotte,6.9,79.9164,Sri Lanka,LK,LKA,Western,primary,115826.0,1144239330,17.0
791,Bridgetown,Bridgetown,13.0975,-59.6167,Barbados,BB,BRB,Saint Michael,primary,110000.0,1052274244,15.0
792,Moroni,Moroni,-11.7036,43.2536,Comoros,KM,COM,Grande Comore,primary,111329.0,1174793581,
793,Thimphu,Thimphu,27.4833,89.6333,Bhutan,BT,BTN,Thimphu,primary,104000.0,1064010361,26.1
794,Mbabane,Mbabane,-26.3167,31.1333,Swaziland,SZ,SWZ,Hhohho,primary,90138.0,1748811945,81.76
795,Honiara,Honiara,-9.4333,159.95,Solomon Islands,SB,SLB,Honiara,primary,84520.0,1090737486,22.0
796,Suva,Suva,-18.1333,178.4333,Fiji,FJ,FJI,Rewa,primary,88271.0,1242615095,2048.0
797,Castries,Castries,14.0167,-60.9833,Saint Lucia,LC,LCA,Castries,primary,70000.0,1662922505,79.0
798,São Tomé,Sao Tome,0.3333,6.7333,Sao Tome And Principe,ST,STP,São Tomé,primary,56166.0,1678301324,17.0
799,Port-Vila,Port-Vila,-17.75,168.3,Vanuatu,VU,VUT,Shefa,primary,51437.0,1548805075,23.6
800,Bandar Seri Begawan,Bandar Seri Begawan,4.9167,114.9167,Brunei,BN,BRN,Brunei and Muara,primary,50000.0,1096465895,100.36
801,Monaco,Monaco,43.7396,7.4069,Monaco,MC,MCO,,primary,36371.0,1492854256,2.1
802,Gitega,Gitega,-3.4264,29.9306,Burundi,BI,BDI,Gitega,primary,41944.0,1108778000,27.0
803,Port of Spain,Port of Spain,10.6667,-61.5167,Trinidad And Tobago,TT,TTO,Port of Spain,primary,37074.0,1780670676,12.0
804,Apia,Apia,-13.8333,-171.8333,Samoa,WS,WSM,Tuamasaga,primary,37708.0,1882489296,47.8
805,Vaduz,Vaduz,47.1415,9.5215,Liechtenstein,LI,LIE,Vaduz,primary,36281.0,1438317747,17.3
806,Banjul,Banjul,13.4531,-16.5775,"Gambia, The",GM,GMB,Banjul,primary,31356.0,1270723713,93.0
807,Tarawa,Tarawa,1.3382,173.0176,Kiribati,KI,KIR,,primary,28802.0,1296152641,
808,Victoria,Victoria,-4.6236,55.4544,Seychelles,SC,SYC,English River,primary,26450.0,1690193579,
809,Majuro,Majuro,7.1167,171.3667,Marshall Islands,MH,MHL,Majuro,primary,25400.0,1584000000,
810,Kingstown,Kingstown,13.1667,-61.2333,Saint Vincent And The Grenadines,VC,VCT,Saint George,primary,25418.0,1670376659,
811,Nuku‘alofa,Nuku`alofa,-21.1347,-175.2083,Tonga,TO,TON,Tongatapu,primary,24571.0,1776737461,
812,Saint John’s,Saint John's,17.1211,-61.8447,Antigua And Barbuda,AG,ATG,Saint John,primary,21926.0,1028912067,
813,Andorra la Vella,Andorra la Vella,42.5,1.5,Andorra,AD,AND,Andorra la Vella,primary,22151.0,1020828846,12.0
814,Belmopan,Belmopan,17.25,-88.7675,Belize,BZ,BLZ,Cayo,primary,17222.0,1084586375,32.78
815,Roseau,Roseau,15.3,-61.3833,Dominica,DM,DMA,Saint George,primary,16582.0,1212060440,
816,Basseterre,Basseterre,17.2983,-62.7342,Saint Kitts And Nevis,KN,KNA,Saint George Basseterre,primary,13220.0,1659198919,6.1
817,Pago Pago,Pago Pago,-14.274,-170.7046,American Samoa,AS,ASM,,primary,12576.0,1016976740,
818,Valletta,Valletta,35.8978,14.5125,Malta,MT,MLT,Valletta,primary,6444.0,1470574399,0.61
819,Palikir,Palikir,6.9178,158.185,"Micronesia, Federated States Of",FM,FSM,Pohnpei,primary,6227.0,1583008885,
820,Funafuti,Funafuti,-8.5167,179.2167,Tuvalu,TV,TUV,Funafuti,primary,6025.0,1798251391,2.4
821,Lobamba,Lobamba,-26.4167,31.1667,Swaziland,SZ,SWZ,Hhohho,primary,5800.0,1748963140,
822,Saint George’s,Saint George's,12.0444,-61.7417,Grenada,GD,GRD,Saint George,primary,4315.0,1308891766,
823,San Marino,San Marino,43.932,12.4484,San Marino,SM,SMR,San Marino Città,primary,4040.0,1674741947,61.2
824,Al Quds,Al Quds,31.7764,35.2269,West Bank,XW,XWB,,primary,,1934000006,652000.0
825,Capitol Hill,Capitol Hill,15.2137,145.7546,Northern Mariana Islands,MP,MNP,,primary,2500.0,1580556972,
826,Hagåtña,Hagta,13.4745,144.7504,Guam,GU,GUM,,primary,1051.0,1316937540,1.0
827,Ngerulmud,Ngerulmud,7.5006,134.6242,Palau,PW,PLW,Melekeok,primary,,1585525081,
828,Bareilly,Bareilly,28.364,79.415,India,IN,IND,Uttar Pradesh,,1000000.0,1356698199,123.0
829,Quảng Hà,Quang Ha,16.06,108.25,Vietnam,VN,VNM,Quảng Nam,,1000000.0,1704966442,191.0
830,Kitaku,Kitaku,33.8704,130.82,Japan,JP,JPN,Fukuoka,,997536.0,1392129541,
831,Jodhpur,Jodhpur,26.2918,73.0168,India,IN,IND,Rājasthān,,995000.0,1356727084,233.5
832,Xingcheng,Xingcheng,24.1681,115.6669,China,CN,CHN,Guangdong,minor,993000.0,1156913008,2113.0
833,Dongtai,Dongtai,32.8534,120.3037,China,CN,CHN,Jiangsu,minor,990306.0,1156536785,1869.0
834,Joinvile,Joinvile,-26.32,-48.8399,Brazil,BR,BRA,Santa Catarina,,988000.0,1076050637,1131.0
835,Yingcheng,Yingcheng,24.1876,113.4042,China,CN,CHN,Guangdong,minor,986400.0,1156012356,1103.0
836,Dnipro,Dnipro,48.45,34.9833,Ukraine,UA,UKR,Dnipropetrovs’ka Oblast’,admin,983836.0,1804152933,409718.0
837,Glasgow,Glasgow,55.8609,-4.2514,United Kingdom,GB,GBR,Glasgow City,,985290.0,1826836462,190.0
838,Chiba,Chiba,35.6,140.1,Japan,JP,JPN,Chiba,admin,980203.0,1392107144,
839,Danyang,Danyang,31.9948,119.575,China,CN,CHN,Jiangsu,,980662.0,1156578273,
840,Natal,Natal,-6.9838,-60.2699,Brazil,BR,BRA,Amazonas,,980588.0,1076336975,
841,Naples,Naples,40.8333,14.25,Italy,IT,ITA,Campania,admin,972212.0,1380646673,119.02
842,Zhaodong,Zhaodong,46.0635,125.9773,China,CN,CHN,Heilongjiang,minor,980000.0,1156601489,
843,Xibeijie,Xibeijie,39.737,98.5049,China,CN,CHN,Gansu,minor,977600.0,1156960560,
844,Kirkuk,Kirkuk,35.4667,44.4,Iraq,IQ,IRQ,Kirkūk,admin,975000.0,1368344172,
845,Huilong,Huilong,31.8131,121.6574,China,CN,CHN,Jiangsu,minor,972525.0,1156485081,
846,Tongjin,Tongjin,37.2361,127.2011,"Korea, South",KR,KOR,Gyeonggi,,971327.0,1410160862,
847,Oklahoma City,Oklahoma City,35.4676,-97.5136,United States,US,USA,Oklahoma,admin,972943.0,1840020428,620.78
848,Toulouse,Toulouse,43.6045,1.444,France,FR,FRA,Occitanie,admin,968638.0,1250258110,5381.5
849,Denizli,Denizli,37.7731,29.0878,Turkey,TR,TUR,Denizli,admin,963464.0,1792161179,798.75
850,Dispur,Dispur,26.15,91.77,India,IN,IND,Assam,admin,957352.0,1356960169,
851,Coimbatore,Coimbatore,11.0,76.9667,India,IN,IND,Tamil Nādu,,959823.0,1356999503,642.12
852,Luocheng,Luocheng,22.7645,111.5745,China,CN,CHN,Guangdong,minor,959006.0,1156138895,
853,Guwāhāti,Guwahati,26.1667,91.7667,India,IN,IND,Assam,,957352.0,1356593800,262.0
854,Shima,Shima,24.4475,117.8118,China,CN,CHN,Fujian,minor,956400.0,1156202451,
855,Sŏngnam,Songnam,37.4386,127.1378,"Korea, South",KR,KOR,Gyeonggi,,948757.0,1410622472,141.7
856,Solāpur,Solapur,17.6833,75.9167,India,IN,IND,Mahārāshtra,,951558.0,1356314385,
857,Tangier,Tangier,35.7847,-5.8125,Morocco,MA,MAR,Tanger-Tétouan-Al Hoceïma,admin,947952.0,1504861504,
858,Anqiu,Anqiu,36.3619,119.1072,China,CN,CHN,Shandong,,947723.0,1156592047,
859,Feicheng,Feicheng,36.186,116.772,China,CN,CHN,Shandong,,946627.0,1156303834,1277.3
860,Taishan,Taishan,22.2486,112.785,China,CN,CHN,Guangdong,,941095.0,1156105450,
861,Meishan,Meishan,34.1736,112.839,China,CN,CHN,Henan,minor,936000.0,1156023073,7173.82
862,Kisangani,Kisangani,0.5153,25.1911,Congo (Kinshasa),CD,COD,Tshopo,admin,935977.0,1180478201,
863,Khartoum North,Khartoum North,15.6333,32.6333,Sudan,SD,SDN,Khartoum,,936349.0,1729318628,
864,Aguascalientes,Aguascalientes,21.876,-102.296,Mexico,MX,MEX,Aguascalientes,admin,934424.0,1484666646,5617.8
865,Marrakech,Marrakech,31.6295,-7.9811,Morocco,MA,MAR,Marrakech-Safi,admin,928850.0,1504172585,
866,Nada,Nada,19.5,109.5833,China,CN,CHN,Hainan,minor,932356.0,1156911678,
867,Donetsk,Donetsk,48.0089,37.8042,Ukraine,UA,UKR,Donets’ka Oblast’,admin,929063.0,1804963805,358.0
868,Taihecun,Taihecun,45.768,131.0063,China,CN,CHN,Heilongjiang,,930000.0,1156875484,
869,Wuchuan,Wuchuan,21.4571,110.7659,China,CN,CHN,Guangdong,,927275.0,1156198103,
870,Trujillo,Trujillo,-8.1119,-79.0289,Peru,PE,PER,La Libertad,admin,919899.0,1604613706,
871,Cebu City,Cebu City,10.3,123.9,Philippines,PH,PHL,Cebu,admin,922611.0,1608136151,1062.88
872,Taihe,Taihe,30.8706,105.3784,China,CN,CHN,Sichuan,minor,924531.0,1156281983,
873,Olinda,Olinda,-8.0,-34.85,Brazil,BR,BRA,Pernambuco,,921840.0,1076784718,2768.0
874,Bridgeport,Bridgeport,41.1918,-73.1953,United States,US,USA,Connecticut,,924449.0,1840004836,465.0
875,Trichinopoly,Trichinopoly,10.8269,78.6928,India,IN,IND,Tamil Nādu,,916857.0,1356884472,211.51
876,Xin’an,Xin'an,34.3662,118.3369,China,CN,CHN,Jiangsu,,920628.0,1156236053,
877,Padang,Padang,-0.9556,100.3606,Indonesia,ID,IDN,Sumatera Barat,admin,914970.0,1360900986,695.0
878,Qingzhou,Qingzhou,36.6967,118.4797,China,CN,CHN,Shandong,,914047.0,1156874864,
879,Buffalo,Buffalo,42.9016,-78.8487,United States,US,USA,New York,,914341.0,1840000386,
880,Xinyi,Xinyi,22.3559,110.9369,China,CN,CHN,Guangdong,,913708.0,1156936644,
881,Lichuan,Lichuan,30.2965,108.9378,China,CN,CHN,Hubei,,913700.0,1156302762,
882,Daye,Daye,30.1003,114.9699,China,CN,CHN,Hubei,,909724.0,1156255811,1566.0
883,Fort Worth,Fort Worth,32.7811,-97.3473,United States,US,USA,Texas,,909585.0,1840020696,355.56
884,Zhuanghe,Zhuanghe,39.6896,122.9664,China,CN,CHN,Liaoning,,905852.0,1156410076,3655.7
885,Hartford,Hartford,41.7661,-72.6834,United States,US,USA,Connecticut,,905152.0,1840004773,469.0
886,Ad Dammām,Ad Dammam,26.4333,50.1,Saudi Arabia,SA,SAU,Ash Sharqīyah,admin,903312.0,1682452296,1471.0
887,Bucheon,Bucheon,37.4989,126.7831,"Korea, South",KR,KOR,Gyeonggi,minor,867678.0,1410428222,53.44
888,Lhasa,Lhasa,29.65,91.1,China,CN,CHN,Tibet,admin,902500.0,1156369972,525.0
889,Homs,Homs,34.7333,36.7167,Syria,SY,SYR,Ḩimş,admin,900492.0,1760013934,104.0
890,Jiaozhou,Jiaozhou,36.2481,119.9625,China,CN,CHN,Shandong,,900500.0,1156752602,
891,Mérida,Merida,20.97,-89.62,Mexico,MX,MEX,Yucatán,admin,892363.0,1484396779,
892,Dengtalu,Dengtalu,36.08,114.35,China,CN,CHN,Henan,minor,887000.0,1156202014,
893,Zaria,Zaria,11.0667,7.7,Nigeria,NG,NGA,Kaduna,minor,889000.0,1566287704,563.0
894,Hubli,Hubli,15.36,75.125,India,IN,IND,Karnātaka,,890000.0,1356102365,
895,Abeokuta,Abeokuta,7.15,3.35,Nigeria,NG,NGA,Ogun,admin,888924.0,1566979497,879.0
896,Tucson,Tucson,32.1545,-110.8782,United States,US,USA,Arizona,,888486.0,1840022101,240.79
897,Krasnodar,Krasnodar,45.0333,38.9833,Russia,RU,RUS,Krasnodarskiy Kray,admin,881476.0,1643438227,
898,Natal,Natal,-5.795,-35.2089,Brazil,BR,BRA,Rio Grande do Norte,admin,877662.0,1076697777,
899,Novo Hamburgo,Novo Hamburgo,-29.7096,-51.14,Brazil,BR,BRA,Rio Grande do Sul,,876990.0,1076221386,224.0
900,Chihuahua,Chihuahua,28.6353,-106.0889,Mexico,MX,MEX,Chihuahua,admin,878062.0,1484335603,
901,Klang,Klang,3.0333,101.45,Malaysia,MY,MYS,Selangor,,878000.0,1458509635,
902,Turin,Turin,45.0667,7.7,Italy,IT,ITA,Piedmont,admin,870952.0,1380244627,130.17
903,Jos,Jos,9.9333,8.8833,Nigeria,NG,NGA,Plateau,admin,873943.0,1566773679,
904,Laiyang,Laiyang,36.9758,120.7136,China,CN,CHN,Shandong,,874127.0,1156207330,
905,Jalandhar,Jalandhar,31.3256,75.5792,India,IN,IND,Punjab,,873725.0,1356494816,110.0
906,Campo Grande,Campo Grande,-20.4686,-54.6222,Brazil,BR,BRA,Mato Grosso do Sul,admin,874210.0,1076660445,8096.05
907,Sale,Sale,34.05,-6.8167,Morocco,MA,MAR,Rabat-Salé-Kénitra,,850403.0,1504989034,
908,Barinas,Barinas,8.6333,-70.2167,Venezuela,VE,VEN,Barinas,admin,873962.0,1862647790,
909,Marseille,Marseille,43.2964,5.37,France,FR,FRA,Provence-Alpes-Côte d’Azur,admin,870018.0,1250774071,3173.5
910,Kaifeng Chengguanzhen,Kaifeng Chengguanzhen,34.85,114.35,China,CN,CHN,Henan,minor,872000.0,1156686574,
911,Eskişehir,Eskisehir,39.7767,30.5206,Turkey,TR,TUR,Eskişehir,admin,871187.0,1792933981,2678.0
912,Gaomi,Gaomi,36.3833,119.75,China,CN,CHN,Shandong,,868715.0,1156673331,1605.6
913,Ipoh,Ipoh,4.6,101.07,Malaysia,MY,MYS,Perak,admin,866772.0,1458423505,643.0
914,Hai’an,Hai'an,32.532,120.4604,China,CN,CHN,Jiangsu,minor,866337.0,1156332302,
915,Liverpool,Liverpool,53.4,-2.9833,United Kingdom,GB,GBR,Liverpool,,864122.0,1826558678,77.1
916,Zamboanga City,Zamboanga City,6.9167,122.0833,Philippines,PH,PHL,Zamboanga,admin,861799.0,1608189351,1414.7
917,Oran,Oran,35.6969,-0.6331,Algeria,DZ,DZA,Oran,admin,852000.0,1012126319,2121.0
918,Southampton,Southampton,50.9,-1.4,United Kingdom,GB,GBR,Southampton,,855569.0,1826602892,28.1
919,Weichanglu,Weichanglu,37.1792,119.9333,China,CN,CHN,Shandong,minor,859424.0,1156194600,
920,Pekanbaru,Pekanbaru,0.5333,101.45,Indonesia,ID,IDN,Riau,admin,855221.0,1360422679,632.26
921,Portsmouth,Portsmouth,50.8058,-1.0872,United Kingdom,GB,GBR,Portsmouth,,855679.0,1826964096,15.54
922,Leping,Leping,28.9632,117.1203,China,CN,CHN,Jiangxi,minor,852800.0,1156705082,
923,Erbil,Erbil,36.1911,44.0094,Iraq,IQ,IRQ,Arbīl,admin,852500.0,1368578192,115.0
924,Kermānshāh,Kermanshah,34.3167,47.0686,Iran,IR,IRN,Kermānshāh,admin,851405.0,1364535690,
925,Hailun,Hailun,47.4585,126.9632,China,CN,CHN,Heilongjiang,minor,850000.0,1156804488,4667.0
926,Yangchun,Yangchun,22.1667,111.7833,China,CN,CHN,Guangdong,,849504.0,1156787307,4055.0
927,Macheng,Macheng,31.1817,115.0189,China,CN,CHN,Hubei,,849090.0,1156949639,3600.0
928,Ilorin,Ilorin,8.5,4.55,Nigeria,NG,NGA,Kwara,admin,847582.0,1566480168,765.0
929,Teresina,Teresina,-5.0949,-42.8042,Brazil,BR,BRA,Piauí,admin,847430.0,1076727667,1755.0
930,Omaha,Omaha,41.2627,-96.0522,United States,US,USA,Nebraska,,847819.0,1840009315,144.59
931,Yuci,Yuci,37.6804,112.73,China,CN,CHN,Shanxi,,840000.0,1156177817,1327.0
932,Saratov,Saratov,51.5333,46.0,Russia,RU,RUS,Saratovskaya Oblast’,admin,845300.0,1643556540,
933,Iguaçu,Iguacu,-22.74,-43.47,Brazil,BR,BRA,Rio de Janeiro,,844583.0,1076339714,
934,El Paso,El Paso,31.8479,-106.4309,United States,US,USA,Texas,,843386.0,1840023252,259.25
935,Denpasar,Denpasar,-8.6667,115.2167,Indonesia,ID,IDN,Bali,admin,834881.0,1360848527,123.98
936,Dehui,Dehui,44.5323,125.6965,China,CN,CHN,Jilin,,839786.0,1156898134,3439.2
937,Naucalpan de Juárez,Naucalpan de Juarez,19.4753,-99.2378,Mexico,MX,MEX,México,minor,833779.0,1484850125,156.63
938,Bhubaneshwar,Bhubaneshwar,20.2644,85.8281,India,IN,IND,Odisha,admin,837737.0,1356140143,1110.0
939,Tongchuan,Tongchuan,34.9057,108.9422,China,CN,CHN,Shaanxi,minor,835600.0,1156849608,3882.0
940,Cheongju,Cheongju,36.6372,127.4897,"Korea, South",KR,KOR,Chungbuk,admin,833276.0,1410964361,940.3
941,Warri,Warri,5.5167,5.75,Nigeria,NG,NGA,Delta,minor,830106.0,1566325734,
942,Pointe-Noire,Pointe-Noire,-4.7889,11.8653,Congo (Brazzaville),CG,COG,Pointe-Noire,admin,829134.0,1178411563,43.7
943,Rongjiawan,Rongjiawan,29.3801,113.1,China,CN,CHN,Hunan,minor,826000.0,1156795164,
944,San Luis Potosí,San Luis Potosi,22.1511,-100.9761,Mexico,MX,MEX,San Luis Potosí,admin,824229.0,1484583620,61137.0
945,Butterworth,Butterworth,5.3942,100.3664,Malaysia,MY,MYS,Pulau Pinang,,821652.0,1458469233,
946,Bhayandar,Bhayandar,19.3,72.85,India,IN,IND,Mahārāshtra,,814655.0,1356019118,79.4
947,Renqiu,Renqiu,38.7094,116.1008,China,CN,CHN,Hebei,,822455.0,1156943939,1012.0
948,Toluca,Toluca,19.2925,-99.6569,Mexico,MX,MEX,México,admin,819561.0,1484124846,452.37
949,Honolulu,Honolulu,21.3294,-157.846,United States,US,USA,Hawaii,admin,820987.0,1840013305,170.2
950,Querétaro,Queretaro,20.5875,-100.3928,Mexico,MX,MEX,Querétaro,admin,804663.0,1484604775,11699.0
951,Xindi,Xindi,29.8182,113.4653,China,CN,CHN,Hubei,,819446.0,1156263165,
952,Wu’an,Wu'an,36.6941,114.1847,China,CN,CHN,Hebei,,819000.0,1156729960,
953,São Bernardo do Campo,Sao Bernardo do Campo,-23.6939,-46.565,Brazil,BR,BRA,São Paulo,,816925.0,1076793227,409.51
954,Hermosillo,Hermosillo,29.0989,-110.9542,Mexico,MX,MEX,Sonora,admin,812229.0,1484015319,168.2
955,Wutong,Wutong,30.6326,120.5474,China,CN,CHN,Zhejiang,minor,815848.0,1156182309,
956,Taguig City,Taguig City,14.5167,121.05,Philippines,PH,PHL,Taguig,admin,804915.0,1608766695,53.67
957,Saltillo,Saltillo,25.4333,-101.0,Mexico,MX,MEX,Coahuila de Zaragoza,admin,807537.0,1484107245,
958,Gaoyou,Gaoyou,32.7847,119.4432,China,CN,CHN,Jiangsu,minor,811800.0,1156235854,1963.0
959,Hejian,Hejian,38.4451,116.0897,China,CN,CHN,Hebei,,810306.0,1156405731,1322.0
960,Yiyang,Yiyang,26.4103,112.3913,China,CN,CHN,Hunan,minor,810447.0,1156142520,12144.0
961,Puxi,Puxi,35.2125,114.735,China,CN,CHN,Henan,minor,809535.0,1156046618,
962,Zijinglu,Zijinglu,34.7513,112.9854,China,CN,CHN,Henan,minor,807857.0,1156086381,
963,Xiashi,Xiashi,30.5333,120.6833,China,CN,CHN,Zhejiang,minor,806966.0,1156080077,
964,Trabzon,Trabzon,41.005,39.7225,Turkey,TR,TUR,Trabzon,admin,807903.0,1792019202,188.85
965,João Pessoa,Joao Pessoa,-7.0833,-34.8333,Brazil,BR,BRA,Paraíba,admin,801718.0,1076922014,
966,Dongyang,Dongyang,29.2785,120.2282,China,CN,CHN,Zhejiang,minor,804398.0,1156259752,2849.53
967,McAllen,McAllen,26.2273,-98.2471,United States,US,USA,Texas,,804114.0,1840021024,62.73
968,Valencia,Valencia,39.4667,-0.375,Spain,ES,ESP,Valencia,admin,794288.0,1724981666,628.81
969,Qingping,Qingping,34.538,113.3796,China,CN,CHN,Henan,minor,797200.0,1156033855,
970,Niigata,Niigata,37.9161,139.0364,Japan,JP,JPN,Niigata,admin,796500.0,1392913753,
971,Hamamatsu,Hamamatsu,34.7167,137.7333,Japan,JP,JPN,Shizuoka,,791770.0,1392174500,1558.06
972,Morelia,Morelia,19.7683,-101.1894,Mexico,MX,MEX,Michoacán de Ocampo,,784776.0,1484669072,
973,Pasig City,Pasig City,14.575,121.0833,Philippines,PH,PHL,Pasig,admin,755300.0,1608278212,31.0
974,Morādābād,Moradabad,28.8418,78.7568,India,IN,IND,Uttar Pradesh,,787000.0,1356269375,149.0
975,Culiacán,Culiacan,24.8069,-107.3939,Mexico,MX,MEX,Sinaloa,admin,785800.0,1484516810,65.0
976,Xiangxiang,Xiangxiang,27.7389,112.5223,China,CN,CHN,Hunan,,787216.0,1156524101,1966.6
977,Malang,Malang,-7.98,112.62,Indonesia,ID,IDN,Jawa Timur,,780000.0,1360141408,2156.6
978,Xingyi,Xingyi,25.091,104.9011,China,CN,CHN,Guizhou,,783120.0,1156255316,
979,Chaohucun,Chaohucun,31.6783,117.7353,China,CN,CHN,Anhui,,782000.0,1156671495,
980,Fuyang,Fuyang,30.0533,119.9519,China,CN,CHN,Zhejiang,minor,771000.0,1156340393,9775.0
981,Antipolo,Antipolo,14.5842,121.1763,Philippines,PH,PHL,Rizal,admin,776386.0,1608824345,306.1
982,Nottingham,Nottingham,52.95,-1.15,United Kingdom,GB,GBR,Nottingham,,768638.0,1826122597,28.81
983,Cencheng,Cencheng,22.9297,111.0186,China,CN,CHN,Guangxi,,772113.0,1156000460,
984,Kraków,Krakow,50.0614,19.9372,Poland,PL,POL,Małopolskie,admin,766739.0,1616172264,1023.21
985,Hempstead,Hempstead,40.6629,-73.6089,United States,US,USA,New York,,768057.0,1840005293,
986,Erzurum,Erzurum,39.9097,41.2756,Turkey,TR,TUR,Erzurum,admin,767848.0,1792511957,
987,Al ‘Ayn,Al `Ayn,24.2075,55.7447,United Arab Emirates,AE,ARE,Abū Z̧aby,,766936.0,1784674685,15100.0
988,Songzi,Songzi,30.1772,111.7732,China,CN,CHN,Hubei,,765911.0,1156837705,2176.9
989,Laixi,Laixi,36.8667,120.5333,China,CN,CHN,Shandong,,762900.0,1156973102,
990,Zhongba,Zhongba,31.7761,104.7406,China,CN,CHN,Sichuan,minor,762140.0,1156515985,
991,Qingnian,Qingnian,36.8494,115.7061,China,CN,CHN,Shandong,minor,760781.0,1156689964,
992,Albuquerque,Albuquerque,35.1053,-106.6464,United States,US,USA,New Mexico,,761195.0,1840019176,188.87
993,Kaduna,Kaduna,10.5231,7.4403,Nigeria,NG,NGA,Kaduna,admin,760084.0,1566368729,431.0
994,Tlalnepantla,Tlalnepantla,19.5367,-99.1947,Mexico,MX,MEX,México,minor,750224.0,1484861603,83.48
995,Xinhualu,Xinhualu,34.3962,113.7249,China,CN,CHN,Henan,minor,758079.0,1156544851,
996,Guangshui,Guangshui,31.6189,113.8229,China,CN,CHN,Hubei,,755910.0,1156267419,2645.5
997,Frankfurt,Frankfurt,50.1136,8.6797,Germany,DE,DEU,Hesse,minor,753056.0,1276054552,248.31
998,Samarinda,Samarinda,-0.5022,117.1536,Indonesia,ID,IDN,Kalimantan Timur,admin,753370.0,1360684979,718.0
999,Changhua,Changhua,24.0667,120.5333,Taiwan,TW,TWN,Changhua,admin,750000.0,1158439005,65.68
1000,Pietermaritzburg,Pietermaritzburg,-29.5833,30.4167,South Africa,ZA,ZAF,KwaZulu-Natal,admin,750845.0,1710690280,126.15
1001,Hŭngnam,Hungnam,39.8231,127.6232,"Korea, North",KP,PRK,Hamnam,,751322.0,1408328889,
1002,Kolhāpur,Kolhapur,16.7,74.2333,India,IN,IND,Mahārāshtra,,750000.0,1356110593,66.82
1003,Ciudad Guayana,Ciudad Guayana,8.3596,-62.6517,Venezuela,VE,VEN,Bolívar,minor,751331.0,1862889027,
1004,Cúcuta,Cucuta,7.9075,-72.5047,Colombia,CO,COL,Norte de Santander,admin,750000.0,1170743755,1176.0
1005,Licheng,Licheng,31.4174,119.4786,China,CN,CHN,Jiangsu,minor,749522.0,1156933354,
1006,Thiruvananthapuram,Thiruvananthapuram,8.5,76.8997,India,IN,IND,Kerala,admin,743691.0,1356024354,311.0
1007,Tyumen,Tyumen,57.15,65.5333,Russia,RU,RUS,Tyumenskaya Oblast’,admin,744554.0,1643040435,698.0
1008,San Cristóbal,San Cristobal,7.7682,-72.2322,Venezuela,VE,VEN,Táchira,admin,743924.0,1862252264,
1009,Zaporizhzhia,Zaporizhzhia,47.8378,35.1383,Ukraine,UA,UKR,Zaporiz’ka Oblast’,admin,741717.0,1804644752,334.0
1010,Cancún,Cancun,21.1606,-86.8475,Mexico,MX,MEX,Quintana Roo,minor,743626.0,1484010310,1978.75
1011,Kumamoto,Kumamoto,32.8031,130.7078,Japan,JP,JPN,Kumamoto,admin,739393.0,1392106283,390.32
1012,Chengguan,Chengguan,35.4599,113.7975,China,CN,CHN,Henan,minor,740435.0,1156866870,
1013,Nehe,Nehe,48.48,124.8738,China,CN,CHN,Heilongjiang,,740000.0,1156609562,6664.0
1014,Sokoto,Sokoto,13.0622,5.2339,Nigeria,NG,NGA,Sokoto,admin,732178.0,1566574518,
1015,Birmingham,Birmingham,33.5277,-86.7987,United States,US,USA,Alabama,,739573.0,1840006507,231.2
1016,Zunhua,Zunhua,40.1881,117.9593,China,CN,CHN,Hebei,minor,737011.0,1156756935,1521.0
1017,Orūmīyeh,Orumiyeh,37.55,45.1,Iran,IR,IRN,Āz̄arbāyjān-e Gharbī,admin,736224.0,1364158221,
1018,Oyo,Oyo,7.8333,3.9333,Nigeria,NG,NGA,Oyo,minor,736072.0,1566930579,
1019,Wugang,Wugang,26.7345,110.6293,China,CN,CHN,Hunan,,734870.0,1156089788,
1020,Shuangqiao,Shuangqiao,35.0833,112.5833,China,CN,CHN,Henan,minor,733000.0,1156968311,
1021,Rennes,Rennes,48.1147,-1.6794,France,FR,FRA,Bretagne,admin,727357.0,1250363682,50.39
1022,Sizhan,Sizhan,39.0099,106.3694,China,CN,CHN,Ningxia,,730400.0,1156450911,
1023,Langzhong,Langzhong,31.5833,105.972,China,CN,CHN,Sichuan,minor,728935.0,1156930148,1877.0
1024,Bristol,Bristol,51.45,-2.5833,United Kingdom,GB,GBR,"Bristol, City of",,724000.0,1826921049,110.0
1025,Qian’an,Qian'an,40.0059,118.6973,China,CN,CHN,Hebei,,728160.0,1156315498,
1026,Lviv,Lviv,49.8419,24.0315,Ukraine,UA,UKR,L’vivs’ka Oblast’,admin,724314.0,1804939658,182.01
1027,Zouping,Zouping,36.8625,117.7424,China,CN,CHN,Shandong,,726722.0,1156817518,
1028,Bremen,Bremen,53.1153,8.7975,Germany,DE,DEU,Bremen,admin,724909.0,1276376509,11627.0
1029,Reynosa,Reynosa,26.0922,-98.2778,Mexico,MX,MEX,Tamaulipas,minor,725793.0,1484737671,3156.34
1030,An Najaf,An Najaf,32.029,44.3396,Iraq,IQ,IRQ,An Najaf,admin,724700.0,1368003357,
1031,Sagamihara,Sagamihara,35.5667,139.3667,Japan,JP,JPN,Kanagawa,,722828.0,1392967248,328.91
1032,Guli,Guli,28.9008,120.0284,China,CN,CHN,Zhejiang,,723490.0,1156383681,
1033,Sarasota,Sarasota,27.3386,-82.5431,United States,US,USA,Florida,,722243.0,1840015988,24.11
1034,Okayama,Okayama,34.65,133.9167,Japan,JP,JPN,Okayama,admin,720865.0,1392954750,789.92
1035,Mississauga,Mississauga,43.6,-79.65,Canada,CA,CAN,Ontario,,721599.0,1124112672,292.43
1036,Lingbao Chengguanzhen,Lingbao Chengguanzhen,34.5221,110.8786,China,CN,CHN,Henan,minor,721049.0,1156837145,
1037,Anlu,Anlu,31.2575,113.6783,China,CN,CHN,Hubei,minor,720000.0,1156406202,91.1
1038,Wusong,Wusong,30.9333,117.7667,China,CN,CHN,Anhui,minor,720000.0,1156264408,
1039,Dayton,Dayton,39.7797,-84.1998,United States,US,USA,Ohio,,718353.0,1840034249,56.55
1040,Enugu,Enugu,6.4403,7.4942,Nigeria,NG,NGA,Enugu,admin,715774.0,1566212729,215.0
1041,George Town,George Town,5.4145,100.3292,Malaysia,MY,MYS,Pulau Pinang,admin,708127.0,1458236750,
1042,Jaboatão,Jaboatao,-8.1803,-35.0014,Brazil,BR,BRA,Pernambuco,,702621.0,1076000699,256.08
1043,Santo André,Santo Andre,-23.6572,-46.5333,Brazil,BR,BRA,São Paulo,,710210.0,1076625886,175.8
1044,Xichang,Xichang,27.8983,102.2706,China,CN,CHN,Sichuan,minor,712434.0,1156116456,2655.0
1045,Soledad,Soledad,10.92,-74.77,Colombia,CO,COL,Atlántico,minor,698852.0,1170765625,
1046,Chengxiang,Chengxiang,31.4515,121.1043,China,CN,CHN,Jiangsu,minor,709500.0,1156254788,
1047,Tolyatti,Tolyatti,53.5167,49.4167,Russia,RU,RUS,Samarskaya Oblast’,,707408.0,1643256295,
1048,Sahāranpur,Saharanpur,29.964,77.546,India,IN,IND,Uttar Pradesh,,705478.0,1356139858,
1049,Warangal,Warangal,17.9756,79.6011,India,IN,IND,Telangana,,704570.0,1356851618,1805.0
1050,Osasco,Osasco,-23.5328,-46.7919,Brazil,BR,BRA,São Paulo,,694844.0,1076786452,3645.0
1051,Dashiqiao,Dashiqiao,40.6328,122.5021,China,CN,CHN,Liaoning,minor,704891.0,1156141962,1610.0
1052,Latakia,Latakia,35.5236,35.7917,Syria,SY,SYR,Al Lādhiqīyah,admin,700000.0,1760555544,108.0
1053,Rochester,Rochester,43.168,-77.6162,United States,US,USA,New York,,703952.0,1840000373,
1054,Fresno,Fresno,36.7831,-119.7941,United States,US,USA,California,,703498.0,1840020319,116.0
1055,Banjarmasin,Banjarmasin,-3.3333,114.5833,Indonesia,ID,IDN,Kalimantan Selatan,admin,692793.0,1360685223,3404.46
1056,Salem,Salem,11.65,78.1667,India,IN,IND,Tamil Nādu,,693236.0,1356567087,
1057,Changsha,Changsha,22.3762,112.6877,China,CN,CHN,Guangdong,minor,699242.0,1156011120,11819.0
1058,Grenoble,Grenoble,45.1715,5.7224,France,FR,FRA,Auvergne-Rhône-Alpes,minor,687985.0,1250071647,18.13
1059,Shishi,Shishi,24.7355,118.6434,China,CN,CHN,Fujian,minor,693000.0,1156077046,
1060,Guadalupe,Guadalupe,25.6775,-100.2597,Mexico,MX,MEX,Nuevo León,minor,691931.0,1484002410,
1061,Aracaju,Aracaju,-10.9111,-37.0717,Brazil,BR,BRA,Sergipe,admin,685356.0,1076527830,181.85
1062,Bauchi,Bauchi,10.3158,9.8442,Nigeria,NG,NGA,Bauchi,admin,693700.0,1566483284,
1063,Hamilton,Hamilton,43.2567,-79.8692,Canada,CA,CAN,Ontario,,693645.0,1124567288,
1064,Łódź,Lodz,51.7769,19.4547,Poland,PL,POL,Łódzkie,admin,690422.0,1616832750,293.25
1065,Miluo Chengguanzhen,Miluo Chengguanzhen,28.8049,113.0745,China,CN,CHN,Hunan,minor,692080.0,1156690651,
1066,Gaizhou,Gaizhou,40.4019,122.3499,China,CN,CHN,Liaoning,minor,691595.0,1156145272,2930.0
1067,Shizuoka,Shizuoka,34.9756,138.3825,Japan,JP,JPN,Shizuoka,admin,691185.0,1392235505,
1068,Mālegaon,Malegaon,20.55,74.55,India,IN,IND,Mahārāshtra,,690844.0,1356113556,68.56
1069,Karbalā’,Karbala',32.6167,44.0333,Iraq,IQ,IRQ,Karbalā’,admin,690100.0,1368597794,
1070,Leling,Leling,37.7333,117.2167,China,CN,CHN,Shandong,minor,689867.0,1156044041,
1071,São José dos Campos,Sao Jose dos Campos,-23.1789,-45.8869,Brazil,BR,BRA,São Paulo,,688597.0,1076783887,1099.4
1072,Jianshe,Jianshe,34.2189,113.7693,China,CN,CHN,Henan,minor,687130.0,1156444449,
1073,Acapulco de Juárez,Acapulco de Juarez,16.8636,-99.8825,Mexico,MX,MEX,Guerrero,minor,687608.0,1484463183,3538.5
1074,Sheffield,Sheffield,53.3833,-1.4667,United Kingdom,GB,GBR,Sheffield,,685368.0,1826289852,142.06
1075,Jingcheng,Jingcheng,32.0058,120.2547,China,CN,CHN,Jiangsu,minor,684360.0,1156033208,
1076,City of Parañaque,City of Paranaque,14.4667,121.0167,Philippines,PH,PHL,Parañaque,admin,665822.0,1608379532,
